{"version": 0.6, "generator": "Overpass API 0.7.56.9 76e5016d", "osm3s": {"timestamp_osm_base": "2021-08-28T07:17:56Z", "copyright": "The data included in this document is from www.openstreetmap.org. The data is made available under ODbL."}, "elements": [{"type": "node", "id": 240270700, "lat": 51.2275649, "lon": 6.7897628, "tags": {"amenity": "telephone", "check_date": "2021-03-12", "source": "survey"}}, {"type": "node", "id": 240270717, "lat": 51.2261514, "lon": 6.7873289, "tags": {"amenity": "parking_entrance", "fee": "yes", "name": "Karstadt Parkhaus", "parking": "multi-storey", "wheelchair": "yes"}}, {"type": "node", "id": 240270723, "lat": 51.2217435, "lon": 6.7874644, "tags": {"amenity": "cafe", "name": "Zaxopondeiva Cafe", "source": "survey", "wheelchair": "limited"}}, {"type": "node", "id": 240270745, "lat": 51.2212639, "lon": 6.7879559, "tags": {"amenity": "pub", "gay": "yes", "gay:men": "yes", "name": "Wilma Next Generation", "source": "survey", "wheelchair": "limited"}}, {"type": "node", "id": 240270787, "lat": 51.2194549, "lon": 6.7872934, "tags": {"amenity": "post_box", "brand": "Deutsche Post", "collection_times": "Mo-Fr 16:00,18:00, Sa 10:15", "operator": "Deutsche Post AG", "ref": "Stresemannstra\u00dfe/Graf-Adolf-Stra\u00dfe, 40210 D\u00fcsseldorf"}}, {"type": "node", "id": 240270802, "lat": 51.2218969, "lon": 6.7870154, "tags": {"amenity": "restaurant", "description": "Lauren's D\u00fcsseldorf Restaurant - Tapas Bar", "name": "Lauren's Cafe", "opening_hours": "Su-Th 17:00-03:00;Fr-Sa 17:00-05:00", "source": "survey", "website": "https://www.laurensduesseldorf.com/", "wheelchair": "yes"}}, {"type": "node", "id": 240271184, "lat": 51.2216682, "lon": 6.7869771, "tags": {"addr:city": "D\u00fcsseldorf", "addr:country": "DE", "addr:housenumber": "61", "addr:postcode": "40210", "addr:street": "Bismarckstra\u00dfe", "amenity": "fast_food", "cuisine": "chinese", "name": "China Imbiss", "source": "survey", "wheelchair": "no"}}, {"type": "node", "id": 240271221, "lat": 51.2204476, "lon": 6.7850037, "tags": {"amenity": "telephone", "button_operated": "yes", "callable": "no", "covered": "yes", "description": "M\u00fcnzr\u00fcckgabe bei Restbetr\u00e4gen nur eingeschr\u00e4nkt m\u00f6glich; f\u00fcr's WLAN gelten abweichende Zahlungsmittel: Entweder passender Telekom-Handytarif, ansonsten zahlen per Kreditkarte, Paypal oder Telefonkarte Comfort (alles online); Barzahlung ist nicht m\u00f6glich.", "description:de": "R-Gespr\u00e4che, also Telefonate, bei denen der Angerufene bezahlt, sind wie folgt m\u00f6glich: W\u00e4hlen Sie 0800 1723, dann die Vorwahl und dann die Rufnummer und warten Sie. Oder 0800 5522 + Vorwahl + Rufnummer. Geht aber nur ins deutsche Festnetz.", "display": "digital", "door": "no", "internet_access": "wlan", "internet_access:fee": "customers", "internet_access:ssid": "Telekom", "language:de": "main", "language:en": "yes", "language:fr": "yes", "language:others": "no", "lit": "yes", "model": "Silberne MMS-Kabine;Blue Phone Kompakt", "operator": "Deutsche Telekom AG", "operator:short": "Telekom", "operator:wikidata": "Q9396", "payment:calling_cards": "yes", "payment:coins": "yes", "payment:others": "no", "payment:reverse_charge_calls": "yes", "payment:telephone_cards": "yes", "sms": "yes", "video": "no", "wheelchair": "limited", "wheelchair:description": "Eine Art Telefonkabine ohne T\u00fcr. Das Telefon ist ebenerdig erreichbar, jedoch wird der Platz vor dem Apparat (sch\u00e4tzungsweise ca. 1 m\u00b2) durch die bis zum Boden gehenden Seitenscheiben eingeengt."}}, {"type": "node", "id": 240271471, "lat": 51.2198043, "lon": 6.7870237, "tags": {"addr:city": "D\u00fcsseldorf", "addr:country": "DE", "addr:housenumber": "46", "addr:postcode": "40210", "addr:street": "Stresemannstra\u00dfe", "amenity": "restaurant", "cuisine": "asian", "name": "fu chu yuan", "phone": "+49 211 8604404", "source": "survey"}}, {"type": "node", "id": 240271505, "lat": 51.2216835, "lon": 6.7876431, "tags": {"addr:city": "D\u00fcsseldorf", "addr:country": "DE", "addr:housenumber": "72", "addr:postcode": "40210", "addr:street": "Bismarckstra\u00dfe", "amenity": "pharmacy", "check_date": "2020-03-21", "contact:email": "info@apotheke-bismarck.de", "contact:fax": "+49 211 354221", "contact:phone": "+49 211 354264", "contact:website": "https://www.apotheke-bismarck.de/", "delivery": "yes", "dispensing": "yes", "healthcare": "pharmacy", "name": "Bismarck-Apotheke", "opening_hours": "Mo-Fr 08:30-18:30; Sa 08:30-14:00; PH off", "operator": "Tatjana Zinnen", "payment:cash": "yes", "payment:girocard": "yes", "wheelchair": "yes"}}, {"type": "node", "id": 240271532, "lat": 51.2213379, "lon": 6.7878892, "tags": {"amenity": "pub", "gay": "yes", "gay:men": "yes", "name": "Comback", "wheelchair": "limited"}}, {"type": "node", "id": 240271618, "lat": 51.2272366, "lon": 6.7863471, "tags": {"amenity": "telephone", "button_operated": "yes", "covered": "yes", "description": "M\u00fcnzr\u00fcckgabe bei Restbetr\u00e4gen nur eingeschr\u00e4nkt m\u00f6glich; f\u00fcr's WLAN gelten abweichende Zahlungsmittel: Entweder passender Telekom-Handytarif, ansonsten zahlen per Kreditkarte, Paypal oder Telefonkarte Comfort (alles online); Barzahlung ist nicht m\u00f6glich.", "display": "digital", "internet_access": "wlan", "internet_access:fee": "customers", "internet_access:ssid": "Telekom", "language:de": "main", "language:en": "yes", "language:fr": "yes", "language:others": "no", "lit": "yes", "operator": "Deutsche Telekom", "operator:wikidata": "Q9396", "payment:coins": "yes", "payment:others": "no", "payment:telephone_cards": "yes", "sms": "yes", "video": "no", "wheelchair": "limited", "wheelchair:description": "Eine Art Telefonkabine ohne T\u00fcr. Das Telefon ist ebenderig erreichbar, jedoch wird der Platz vor dem Apparat (sch\u00e4tzungweise ca. 1 m\u00b2) durch die bis zum Boden gehenden Seitenscheiben eingeengt."}}, {"type": "node", "id": 240271640, "lat": 51.2247115, "lon": 6.7880133, "tags": {"amenity": "post_box", "collection_times": "Mo-Fr 15:00,16:30; Sa 12:00; Su 09:00", "operator": "Deutsche Post AG", "ref": "Oststra\u00dfe 57, 40210 D\u00fcsseldorf"}}, {"type": "node", "id": 240271909, "lat": 51.2205684, "lon": 6.7845916, "tags": {"addr:city": "D\u00fcsseldorf", "addr:country": "DE", "addr:housenumber": "143", "addr:postcode": "40210", "addr:street": "Oststra\u00dfe", "amenity": "restaurant", "contact:email": "tajmahal-duesseldorf@gmx.de", "contact:fax": "+49 211 56942394", "contact:phone": "+49 211 56942393", "internet_access": "no", "name": "Taj Mahal", "opening_hours": "Mo-Fr 12:00-15:00, 17:30-24:00; Sa-Su 12:00-24:00", "smoking": "no", "website": "http://www.tajmahal.de"}}, {"type": "node", "id": 240271995, "lat": 51.221606, "lon": 6.7871423, "tags": {"amenity": "pub", "name": "Cafe de Paris", "source": "survey", "wheelchair": "no"}}, {"type": "node", "id": 240272033, "lat": 51.2192078, "lon": 6.7852854, "tags": {"addr:city": "D\u00fcsseldorf", "addr:country": "DE", "addr:housenumber": "70", "addr:postcode": "40210", "addr:street": "Graf-Adolf-Stra\u00dfe", "amenity": "restaurant", "name": "Hai Xian", "source": "survey"}}, {"type": "node", "id": 240272330, "lat": 51.2214101, "lon": 6.7881018, "tags": {"amenity": "telephone", "button_operated": "yes", "description": "M\u00fcnzr\u00fcckgabe bei Restbetr\u00e4gen nur eingeschr\u00e4nkt m\u00f6glich; f\u00fcr's WLAN gelten abweichende Zahlungsmittel: Entweder passender Telekom-Handytarif, ansonsten zahlen per Kreditkarte, Paypal oder Telefonkarte Comfort (alles online); Barzahlung ist nicht m\u00f6glich.", "display": "digital", "internet_access": "wlan", "internet_access:fee": "customers", "internet_access:ssid": "Telekom", "language:de": "main", "language:en": "yes", "language:fr": "yes", "language:others": "no", "lit": "yes", "operator": "Deutsche Telekom", "operator:wikidata": "Q9396", "payment:coins": "yes", "payment:others": "no", "payment:telephone_cards": "yes", "sms": "yes", "video": "no", "wheelchair": "yes"}}, {"type": "node", "id": 240272378, "lat": 51.2218397, "lon": 6.787179, "tags": {"addr:city": "D\u00fcsseldorf", "addr:country": "DE", "addr:housenumber": "66", "addr:postcode": "40210", "addr:street": "Bismarckstra\u00dfe", "amenity": "restaurant", "cuisine": "korean", "description": "Koreanisches Restaurant", "name": "Korea Haus", "source": "survey", "wheelchair": "no"}}, {"type": "node", "id": 240272420, "lat": 51.2195663, "lon": 6.7877425, "tags": {"amenity": "restaurant", "cuisine": "vietnamese", "name": "To 1980"}}, {"type": "node", "id": 240272627, "lat": 51.2283124, "lon": 6.7890655, "tags": {"amenity": "bank", "atm": "yes", "name": "Sparkasse", "opening_hours": "Mo-We 09:00-16:00; Th 09:00-18:00; Fr 09:00-16:00", "operator": "Stadtsparkasse D\u00fcsseldorf", "source": "survey", "wheelchair": "yes"}}, {"type": "node", "id": 240272663, "lat": 51.2220759, "lon": 6.7865451, "tags": {"addr:city": "D\u00fcsseldorf", "addr:country": "DE", "addr:housenumber": "56a", "addr:postcode": "40210", "addr:street": "Bismarckstra\u00dfe", "amenity": "bar", "description": "EXODOS Caf\u00e9 Cocktail Bar", "name": "Exodus", "opening_hours": "Mo-Su 12:00-02:00", "wheelchair": "limited"}}, {"type": "node", "id": 240272673, "lat": 51.2215689, "lon": 6.7853536, "tags": {"addr:city": "D\u00fcsseldorf", "addr:country": "DE", "addr:housenumber": "123", "addr:postcode": "40210", "addr:street": "Oststra\u00dfe", "amenity": "pub", "microbrewery": "yes", "name": "Brauhaus Schumacher", "phone": "+49 211 8289020", "website": "https://www.schumacher-alt.de/", "wheelchair": "limited"}}, {"type": "node", "id": 240272790, "lat": 51.219155, "lon": 6.7859605, "tags": {"addr:city": "D\u00fcsseldorf", "addr:country": "DE", "addr:housenumber": "70a", "addr:postcode": "40210", "addr:street": "Graf-Adolf-Stra\u00dfe", "amenity": "restaurant", "cuisine": "vietnamese", "name": "To1980", "phone": "+49211 15801256"}}, {"type": "node", "id": 240272802, "lat": 51.2265149, "lon": 6.7878634, "tags": {"amenity": "recycling", "recycling:glass_bottles": "yes", "recycling_type": "container"}}, {"type": "node", "id": 240272821, "lat": 51.2212642, "lon": 6.7835052, "tags": {"addr:city": "D\u00fcsseldorf", "addr:country": "DE", "addr:housenumber": "7", "addr:postcode": "40210", "addr:street": "Stresemannstra\u00dfe", "amenity": "doctors", "healthcare": "doctor", "healthcare:speciality": "dental_oral_maxillo_facial_surgery", "name": "Kiefer- und Gesichtschirurgie", "opening_hours": "Mo-Fr 8:00-18:30"}}, {"type": "node", "id": 240272836, "lat": 51.2259244, "lon": 6.7868031, "tags": {"amenity": "telephone", "source": "survey"}}, {"type": "node", "id": 240272896, "lat": 51.2217902, "lon": 6.787331, "tags": {"addr:city": "D\u00fcsseldorf", "addr:country": "DE", "addr:housenumber": "68", "addr:postcode": "40210", "addr:street": "Bismarckstra\u00dfe", "amenity": "cafe", "description": "Griechisches Caf\u00e9", "name": "Byzantio", "opening_hours": "Mo-Su 08:00-23:00", "phone": "+49 211 161960", "source": "survey", "wheelchair": "limited"}}, {"type": "node", "id": 240272911, "lat": 51.225161, "lon": 6.7885564, "tags": {"amenity": "financial_advice", "name": "Postbank-Finanzberatung", "operator": "Postbank", "wheelchair": "no"}}, {"type": "node", "id": 240272917, "lat": 51.2213011, "lon": 6.7879352, "tags": {"addr:city": "D\u00fcsseldorf", "addr:country": "DE", "addr:housenumber": "60", "addr:postcode": "40210", "addr:street": "Charlottenstra\u00dfe", "amenity": "restaurant", "cuisine": "japanese", "name": "Kagaya", "source": "survey"}}, {"type": "node", "id": 240272936, "lat": 51.220213, "lon": 6.7866959, "tags": {"amenity": "pub", "name": "Kr\u00e4nkel", "source": "survey"}}, {"type": "node", "id": 240272938, "lat": 51.2220237, "lon": 6.7866794, "tags": {"amenity": "pub", "name": "Highway Karaoke", "wheelchair": "limited"}}, {"type": "node", "id": 240272944, "lat": 51.2192775, "lon": 6.7856817, "tags": {"addr:city": "D\u00fcsseldorf", "addr:country": "DE", "addr:housenumber": "76", "addr:postcode": "40210", "addr:street": "Bahnstra\u00dfe", "amenity": "restaurant", "cuisine": "thai", "name": "Sila Thai", "website": "https://www.silathai.com/"}}, {"type": "node", "id": 240272946, "lat": 51.2233428, "lon": 6.7902189, "tags": {"addr:city": "D\u00fcsseldorf", "addr:country": "DE", "addr:housenumber": "40", "addr:postcode": "40210", "addr:street": "Immermannstra\u00dfe", "amenity": "restaurant", "cuisine": "greek", "name": "Akropolis", "note": "address is Immermannstr.40 although entrance is in building Charlottenstr.100", "opening_hours": "11:00-22:00", "phone": "+49 211 354613", "wheelchair": "limited"}}, {"type": "node", "id": 240272955, "lat": 51.2263209, "lon": 6.7870455, "tags": {"amenity": "recycling", "recycling:clothes": "yes", "recycling:paper": "yes", "recycling_type": "container"}}, {"type": "node", "id": 240272957, "lat": 51.2219204, "lon": 6.7863539, "tags": {"addr:city": "D\u00fcsseldorf", "addr:country": "DE", "addr:housenumber": "51", "addr:postcode": "40210", "addr:street": "Bismarckstra\u00dfe", "amenity": "restaurant", "cuisine": "korean", "name": "Korea", "source": "survey", "website": "http://restaurant-korea.com/", "wheelchair": "limited"}}, {"type": "node", "id": 241429036, "lat": 51.2237707, "lon": 6.7844914, "tags": {"amenity": "parking", "source": "survey"}}, {"type": "node", "id": 241429052, "lat": 51.2232684, "lon": 6.7867367, "tags": {"amenity": "post_box", "collection_times": "Mo-Fr 16:00; Sa 11:30", "operator": "Deutsche Post AG", "ref": "Oststra\u00dfe 87, 40210 D\u00fcsseldorf"}}, {"type": "node", "id": 241429075, "lat": 51.2186583, "lon": 6.7844947, "tags": {"addr:city": "D\u00fcsseldorf", "addr:country": "DE", "addr:housenumber": "47", "addr:postcode": "40210", "addr:street": "Graf-Adolf-Stra\u00dfe", "amenity": "cinema", "capacity": "190", "cinema:3D": "yes", "cinemas": "1", "email": "atelier@filmkunstkinos.de", "fax": "+49 211 5663497", "loyalty_card": "Gildepass", "name": "Atelier", "operator": "Metropol D\u00fcsseldorfer Filmkunstkinos GmbH", "phone": "+49 211 5663496", "website": "https://filmkunstkinos.de/kinos.php?kinos=atelier", "wheelchair": "no"}}, {"type": "node", "id": 241429078, "lat": 51.2187133, "lon": 6.7845536, "tags": {"amenity": "telephone", "created_by": "JOSM", "source": "survey"}}, {"type": "node", "id": 241429080, "lat": 51.2187164, "lon": 6.7846521, "tags": {"amenity": "post_box", "collection_times": "Mo-Fr 15:30,16:30,18:15; Sa 12:00; Su 09:00", "operator": "Deutsche Post AG", "ref": "Graf-Adolf-Stra\u00dfe 49, 40210 D\u00fcsseldorf", "source": "survey"}}, {"type": "node", "id": 241429088, "lat": 51.2183389, "lon": 6.7835988, "tags": {"addr:city": "D\u00fcsseldorf", "addr:country": "DE", "addr:housenumber": "174", "addr:postcode": "40215", "addr:street": "Karl-Rudolf-Stra\u00dfe", "amenity": "restaurant", "cuisine": "turkish", "name": "The Bosporus", "opening_hours": "Mo-Su 11:30-23:00"}}, {"type": "node", "id": 241429099, "lat": 51.2178972, "lon": 6.7883506, "tags": {"addr:city": "D\u00fcsseldorf", "addr:country": "DE", "addr:housenumber": "92", "addr:postcode": "40215", "addr:street": "Adersstra\u00dfe", "amenity": "pub", "name": "sanfter Rebell", "source": "survey"}}, {"type": "node", "id": 241429162, "lat": 51.2247176, "lon": 6.7893706, "tags": {"addr:city": "D\u00fcsseldorf", "addr:country": "DE", "addr:housenumber": "78", "addr:postcode": "40211", "addr:street": "Klosterstra\u00dfe", "amenity": "cinema", "capacity": "144;71", "cinemas": "2", "email": "bambi@filmkunstkinos.de", "loyalty_card": "Gildepass", "name": "Bambi", "operator": "Metropol D\u00fcsseldorfer Filmkunstkinos GmbH", "phone": "+49 211 353635", "website": "https://filmkunstkinos.de/kinos.php?kinos=bambi", "wheelchair": "no"}}, {"type": "node", "id": 250200517, "lat": 51.2348682, "lon": 6.7867146}, {"type": "node", "id": 253872427, "lat": 51.2174645, "lon": 6.761811}, {"type": "node", "id": 253872432, "lat": 51.2176452, "lon": 6.761645}, {"type": "node", "id": 253872433, "lat": 51.2177339, "lon": 6.7621068}, {"type": "node", "id": 253872434, "lat": 51.2174561, "lon": 6.7623673}, {"type": "node", "id": 253872435, "lat": 51.2172602, "lon": 6.7619562}, {"type": "node", "id": 253876259, "lat": 51.2272961, "lon": 6.7755869, "tags": {"addr:city": "D\u00fcsseldorf", "addr:country": "DE", "addr:housenumber": "1", "addr:postcode": "40213", "addr:street": "Kay-und-Lore-Lorentz-Platz", "amenity": "theatre", "name": "Komm\u00f6dchen", "official_name": "Kom(m)\u00f6dchen", "phone": "+49 211 329443", "website": "https://www.kommoedchen.de/", "wheelchair:description": "\u00fcber einen Seitenaufzug kommt man ins Geb\u00e4ude", "wikidata": "Q1779736", "wikipedia": "de:Kom(m)\u00f6dchen"}}, {"type": "node", "id": 253877315, "lat": 51.2156926, "lon": 6.7676517}, {"type": "node", "id": 253877316, "lat": 51.2153252, "lon": 6.7672499}, {"type": "node", "id": 253877317, "lat": 51.2161237, "lon": 6.7654081}, {"type": "node", "id": 253877318, "lat": 51.2164492, "lon": 6.7657621}, {"type": "node", "id": 253877319, "lat": 51.2162113, "lon": 6.7663191}, {"type": "node", "id": 253877320, "lat": 51.216545, "lon": 6.7666885}, {"type": "node", "id": 253877321, "lat": 51.2164718, "lon": 6.7668652}, {"type": "node", "id": 253877322, "lat": 51.2161726, "lon": 6.766535}, {"type": "node", "id": 253877323, "lat": 51.2160053, "lon": 6.7669186}, {"type": "node", "id": 253877324, "lat": 51.2163062, "lon": 6.7672442}, {"type": "node", "id": 253877325, "lat": 51.2162315, "lon": 6.7674203}, {"type": "node", "id": 253877326, "lat": 51.2159297, "lon": 6.7670952}, {"type": "node", "id": 253877327, "lat": 51.2158206, "lon": 6.7669731}, {"type": "node", "id": 253877328, "lat": 51.2156327, "lon": 6.7667705}, {"type": "node", "id": 253877329, "lat": 51.2154715, "lon": 6.7671488}, {"type": "node", "id": 253877330, "lat": 51.2156572, "lon": 6.7673557}, {"type": "node", "id": 253877331, "lat": 51.2160598, "lon": 6.7664156}, {"type": "node", "id": 253877332, "lat": 51.2158735, "lon": 6.7662125}, {"type": "node", "id": 253877333, "lat": 51.215712, "lon": 6.7665959}, {"type": "node", "id": 253877334, "lat": 51.2158962, "lon": 6.7667995}, {"type": "node", "id": 253877335, "lat": 51.2163019, "lon": 6.7658609}, {"type": "node", "id": 253877336, "lat": 51.2161152, "lon": 6.7656593}, {"type": "node", "id": 253877337, "lat": 51.2159513, "lon": 6.7660358}, {"type": "node", "id": 253877338, "lat": 51.216139, "lon": 6.7662405}, {"type": "node", "id": 253878317, "lat": 51.2266115, "lon": 6.7715537}, {"type": "node", "id": 253878324, "lat": 51.2262749, "lon": 6.7712549}, {"type": "node", "id": 253878326, "lat": 51.2265348, "lon": 6.7713809}, {"type": "node", "id": 253878331, "lat": 51.2263535, "lon": 6.7718879}, {"type": "node", "id": 253878332, "lat": 51.2266425, "lon": 6.7716568}, {"type": "node", "id": 253878333, "lat": 51.2264506, "lon": 6.7720851, "tags": {"amenity": "toilets", "fee": "no", "toilets:wheelchair": "yes", "wheelchair": "yes", "wheelchair:description": "Abgeschlossen wer wei\u00df schon wo der Schl\u00fcssel ist."}}, {"type": "node", "id": 253878412, "lat": 51.2247309, "lon": 6.7823524}, {"type": "node", "id": 253878413, "lat": 51.224725, "lon": 6.782362}, {"type": "node", "id": 253878414, "lat": 51.224741, "lon": 6.782497}, {"type": "node", "id": 253878422, "lat": 51.2245164, "lon": 6.7827001}, {"type": "node", "id": 253878423, "lat": 51.2244922, "lon": 6.7826946}, {"type": "node", "id": 253897024, "lat": 51.2255114, "lon": 6.7802442, "tags": {"entrance": "main"}}, {"type": "node", "id": 253898449, "lat": 51.226178, "lon": 6.7715155}, {"type": "node", "id": 253898450, "lat": 51.2261774, "lon": 6.7711465}, {"type": "node", "id": 253898452, "lat": 51.2261231, "lon": 6.7711514}, {"type": "node", "id": 253898980, "lat": 51.226207, "lon": 6.7751987, "tags": {"addr:city": "D\u00fcsseldorf", "addr:country": "DE", "addr:housenumber": "57", "addr:postcode": "40213", "addr:street": "Bolkerstra\u00dfe", "amenity": "fast_food", "brand": "Burger King", "brand:wikidata": "Q177054", "brand:wikipedia": "en:Burger King", "cuisine": "burger", "name": "Burger King", "takeaway": "yes", "toilets:wheelchair": "no", "wheelchair": "limited"}}, {"type": "node", "id": 253905661, "lat": 51.2206804, "lon": 6.7685222}, {"type": "node", "id": 253905662, "lat": 51.221224, "lon": 6.7688229}, {"type": "node", "id": 253908317, "lat": 51.2282824, "lon": 6.7712737}, {"type": "node", "id": 253908318, "lat": 51.2280796, "lon": 6.7714036}, {"type": "node", "id": 253908319, "lat": 51.2282882, "lon": 6.7719419}, {"type": "node", "id": 253908321, "lat": 51.2282986, "lon": 6.7719424}, {"type": "node", "id": 253908322, "lat": 51.2283199, "lon": 6.7719284}, {"type": "node", "id": 253908323, "lat": 51.2283857, "lon": 6.7718856}, {"type": "node", "id": 253908324, "lat": 51.2284027, "lon": 6.7718865}, {"type": "node", "id": 253908325, "lat": 51.2284246, "lon": 6.7716599}, {"type": "node", "id": 253911160, "lat": 51.2228588, "lon": 6.7833792, "tags": {"addr:city": "D\u00fcsseldorf", "addr:country": "DE", "addr:housenumber": "23", "addr:postcode": "40210", "addr:street": "Steinstra\u00dfe", "amenity": "theatre", "contact:email": "info@duesseldorf-komoedie.de", "contact:facebook": "https://www.facebook.com/komoedieduesseldorf/", "name": "Kom\u00f6die D\u00fcsseldorf", "operator": "Verena W\u00fcstkamp", "phone": "+49 211 136 513 33", "start_date": "1962", "theatre:genre": "comedy", "theatre:type": "stage", "website": "https://www.komoedie-steinstrasse.de/", "wikidata": "Q1781091", "wikipedia": "de:Kom\u00f6die D\u00fcsseldorf"}}, {"type": "node", "id": 256166585, "lat": 51.2262895, "lon": 6.7711522}, {"type": "node", "id": 258360248, "lat": 51.2279049, "lon": 6.7856118, "tags": {"barrier": "lift_gate"}}, {"type": "node", "id": 258360710, "lat": 51.2257677, "lon": 6.7887594}, {"type": "node", "id": 258360711, "lat": 51.2255794, "lon": 6.7886962}, {"type": "node", "id": 258360712, "lat": 51.2255108, "lon": 6.7891017}, {"type": "node", "id": 258360713, "lat": 51.2254632, "lon": 6.7890893}, {"type": "node", "id": 258360714, "lat": 51.225437, "lon": 6.7892743}, {"type": "node", "id": 258360716, "lat": 51.2254856, "lon": 6.7895195}, {"type": "node", "id": 258360719, "lat": 51.2255718, "lon": 6.7897234}, {"type": "node", "id": 258360720, "lat": 51.2256233, "lon": 6.7897669}, {"type": "node", "id": 258360722, "lat": 51.2257664, "lon": 6.789198}, {"type": "node", "id": 258360723, "lat": 51.2257252, "lon": 6.7891739}, {"type": "node", "id": 266184939, "lat": 51.2268635, "lon": 6.7755064, "tags": {"addr:city": "D\u00fcsseldorf", "addr:country": "DE", "addr:housenumber": "16", "addr:postcode": "40213", "addr:street": "Hunsr\u00fcckenstra\u00dfe", "amenity": "restaurant", "cuisine": "mexican", "name": "Drei Amigos", "website": "http://www.dreiamigos.de/", "wheelchair": "limited"}}, {"type": "node", "id": 266185247, "lat": 51.2261677, "lon": 6.7731329, "tags": {"addr:city": "D\u00fcsseldorf", "addr:country": "DE", "addr:housenumber": "16", "addr:postcode": "40213", "addr:street": "Bolkerstra\u00dfe", "amenity": "nightclub", "name": "Sub", "wheelchair": "yes"}}, {"type": "node", "id": 266185248, "lat": 51.2261913, "lon": 6.7733201, "tags": {"addr:city": "D\u00fcsseldorf", "addr:country": "DE", "addr:housenumber": "18", "addr:postcode": "40213", "addr:street": "Bolkerstra\u00dfe", "amenity": "pub", "name": "Louisiana", "wheelchair": "no"}}, {"type": "node", "id": 266185312, "lat": 51.226051, "lon": 6.7731372, "tags": {"amenity": "atm", "description": "mit SB Bereich zum Geld einzahlen", "operator": "Stadtsparkasse D\u00fcsseldorf", "wheelchair": "no", "wheelchair:description": "Die Automaten so hoch, dass man vom Rollstuhl aus nicht mal die Tastatur sehen, oder seine karte einf\u00fchren kann. Benutzt lieber die Automaten in der U-Bahn Haltestelle \"Heinrich-Heine-Allee\". Die sind zwar nicht optimal, aber immerhin kommt man dran."}}, {"type": "node", "id": 272496563, "lat": 51.2329131, "lon": 6.7790061, "tags": {"addr:city": "D\u00fcsseldorf", "addr:country": "DE", "addr:housenumber": "1", "addr:postcode": "40479", "addr:street": "Inselstra\u00dfe", "amenity": "toilets", "fee": "yes", "female": "yes", "male": "yes", "name": "Wall City-Toilette", "source": "knowledge", "wheelchair": "yes", "wheelchair:description": "geb\u00fchrenpflichtig oder mit Euroschl\u00fcssel"}}, {"type": "node", "id": 276118374, "lat": 51.2179617, "lon": 6.7900734, "tags": {"amenity": "taxi"}}, {"type": "node", "id": 276118375, "lat": 51.2179652, "lon": 6.7901515, "tags": {"amenity": "post_box", "collection_times": "Mo-Fr 16:30; Sa 10:15", "operator": "Deutsche Post AG", "ref": "Mintropplatz, 40215 D\u00fcsseldorf", "source": "survey"}}, {"type": "node", "id": 276118376, "lat": 51.2175551, "lon": 6.7900534, "tags": {"amenity": "telephone"}}, {"type": "node", "id": 276118842, "lat": 51.2171524, "lon": 6.7833514, "tags": {"amenity": "telephone", "button_operated": "yes", "covered": "yes", "description": "M\u00fcnzr\u00fcckgabe bei Restbetr\u00e4gen nur eingeschr\u00e4nkt m\u00f6glich; f\u00fcr's WLAN gelten abweichende Zahlungsmittel: Entweder passender Telekom-Handytarif, ansonsten zahlen per Kreditkarte, Paypal oder Telefonkarte Comfort (alles online); Barzahlung ist nicht m\u00f6glich.", "display": "digital", "internet_access": "wlan", "internet_access:fee": "customers", "internet_access:ssid": "Telekom", "language:de": "main", "language:en": "yes", "language:fr": "yes", "language:others": "no", "lit": "yes", "operator": "Deutsche Telekom", "operator:wikidata": "Q9396", "payment:coins": "yes", "payment:others": "no", "payment:telephone_cards": "yes", "sms": "yes", "source": "survey", "video": "no", "wheelchair": "limited", "wheelchair:description": "Eine Art Telefonkabine ohne T\u00fcr. Das Telefon ist ebenderig erreichbar, jedoch wird der Platz vor dem Apparat (sch\u00e4tzungweise ca. 1 m\u00b2) durch die bis zum Boden gehenden Seitenscheiben eingeengt."}}, {"type": "node", "id": 276119428, "lat": 51.2237561, "lon": 6.7875589, "tags": {"amenity": "telephone", "operator": "Deutsche Telekom", "source": "survey"}}, {"type": "node", "id": 276119651, "lat": 51.2262104, "lon": 6.7888819, "tags": {"amenity": "post_box", "collection_times": "Mo-Fr 16:30; Sa 12:00", "operator": "Deutsche Post AG", "ref": "Leopoldstra\u00dfe 1, 40211 D\u00fcsseldorf"}}, {"type": "node", "id": 277823701, "lat": 51.2343876, "lon": 6.7733065}, {"type": "node", "id": 277823702, "lat": 51.234776, "lon": 6.7746852}, {"type": "node", "id": 277823703, "lat": 51.2351835, "lon": 6.7744761}, {"type": "node", "id": 279452012, "lat": 51.2273389, "lon": 6.7866846, "tags": {"addr:city": "D\u00fcsseldorf", "addr:country": "DE", "addr:housenumber": "93", "addr:postcode": "40212", "addr:street": "Schadowstra\u00dfe", "amenity": "cafe", "name": "K\u00f6nigsberg", "wheelchair": "no"}}, {"type": "node", "id": 279455020, "lat": 51.2262993, "lon": 6.7740999, "tags": {"addr:city": "D\u00fcsseldorf", "addr:country": "DE", "addr:housenumber": "30", "addr:postcode": "40213", "addr:street": "Bolkerstra\u00dfe", "amenity": "pub", "name": "Sausalitos", "toilets:wheelchair": "no", "wheelchair": "limited"}}, {"type": "node", "id": 281840906, "lat": 51.2270197, "lon": 6.776056, "tags": {"addr:city": "D\u00fcsseldorf", "addr:country": "DE", "addr:housenumber": "5", "addr:postcode": "40213", "addr:street": "Mutter-Ey-Stra\u00dfe", "amenity": "post_office", "brand": "Deutsche Post", "brand:wikidata": "Q157645", "brand:wikipedia": "en:Deutsche Post", "name": "Deutsche Post", "opening_hours": "Mo-Fr 09:00-18:00;Sa 10:00-13:00"}}, {"type": "node", "id": 281851394, "lat": 51.2178376, "lon": 6.7620647, "tags": {"amenity": "post_box", "collection_times": "Mo-Fr 18:00; Sa 10:15; Su 09:00", "operator": "Deutsche Post AG", "ref": "Stromstra\u00dfe 2, 40221 D\u00fcsseldorf"}}, {"type": "node", "id": 282181043, "lat": 51.2210947, "lon": 6.7854431, "tags": {"addr:city": "D\u00fcsseldorf", "addr:country": "DE", "addr:housenumber": "124", "addr:postcode": "40210", "addr:street": "Oststra\u00dfe", "amenity": "restaurant", "cuisine": "italian", "email": "info@cucinafarina.de", "name": "Cucina Farina", "opening_hours": "Mo-Th 12:00-23:00; Fr 12:00-01:00, Sa 15:00-01:00, Su 16:00-22:00", "phone": "+49 211 68814144", "website": "http://www.cucinafarina.de"}}, {"type": "node", "id": 282776331, "lat": 51.2181008, "lon": 6.782847, "tags": {"addr:city": "D\u00fcsseldorf", "addr:country": "DE", "addr:housenumber": "46", "addr:postcode": "40215", "addr:street": "Adersstra\u00dfe", "amenity": "restaurant", "cuisine": "mexican", "name": "Pssst Bandido", "opening_hours": "Mo-Sa 14:30-23:30; Su 12:00-23:30", "phone": "+49 211 373734", "toilets:wheelchair": "no", "website": "http://www.pssst-bandido.de/", "wheelchair": "limited"}}, {"type": "node", "id": 287084795, "lat": 51.2219531, "lon": 6.7891518, "tags": {"addr:city": "D\u00fcsseldorf", "addr:country": "DE", "addr:housenumber": "51", "addr:postcode": "40210", "addr:street": "Charlottenstra\u00dfe", "amenity": "pub", "fax": "+49 2131 3693780", "name": "Barco Bar & Coffee Lounge", "opening_hours": "Mo-Th,Su 08:00-03:00, Fr,Sa 08:00+", "phone": "+49 2131 3663853", "website": "http://www.barco-lounge.de/", "wheelchair": "no"}}, {"type": "node", "id": 305805672, "lat": 51.2172373, "lon": 6.7831543, "tags": {"amenity": "recycling", "recycling:clothes": "yes", "recycling:glass_bottles": "yes", "recycling_type": "container"}}, {"type": "node", "id": 309938097, "lat": 51.2178268, "lon": 6.7826689, "tags": {"amenity": "recycling", "recycling:cardboard": "yes", "recycling:glass": "yes", "recycling:glass_bottles": "yes", "recycling:paper": "yes", "recycling_level": "underground", "recycling_type": "container", "wheelchair": "yes"}}, {"type": "node", "id": 309938098, "lat": 51.217943, "lon": 6.7824066}, {"type": "node", "id": 309938099, "lat": 51.2190244, "lon": 6.7808551, "tags": {"amenity": "post_box", "collection_times": "Mo-Fr 16:00,18:15; Sa 12:00", "operator": "Deutsche Post AG", "ref": "Graf-Adolf-Stra\u00dfe 20, 40212 D\u00fcsseldorf"}}, {"type": "node", "id": 309938102, "lat": 51.2190905, "lon": 6.7815209, "tags": {"amenity": "bank", "atm": "yes", "brand": "Deutsche Bank", "brand:wikidata": "Q66048", "brand:wikipedia": "en:Deutsche Bank", "name": "Deutsche Bank", "opening_hours": "Mo-Fr 09:00-13:00, Mo-We,Fr 14:00-16:00, Th 14:00-18:00", "operator": "Deutsche Bank", "source": "survey", "wheelchair": "yes"}}, {"type": "node", "id": 309938103, "lat": 51.2187257, "lon": 6.7808119, "tags": {"addr:city": "D\u00fcsseldorf", "addr:country": "DE", "addr:housenumber": "17", "addr:postcode": "40212", "addr:street": "Graf-Adolf-Stra\u00dfe", "amenity": "restaurant", "changing_table": "yes", "changing_table:location": "wheelchair_toilet", "cuisine": "asian", "delivery": "no", "diet:vegan": "yes", "diet:vegetarian": "yes", "email": "duesseldorf@coa.as", "name": "Coa Wok & Bowls", "opening_hours": "Mo-Sa 11:00-23:00; Su 12:00-22:00", "operator": "coa Holding GmbH", "outdoor_seating": "yes", "phone": "+49 211 78175730", "website": "https://coa.as/duesseldorf/", "wheelchair": "limited"}}, {"type": "node", "id": 309938105, "lat": 51.2184423, "lon": 6.7812432, "tags": {"addr:city": "D\u00fcsseldorf", "addr:country": "DE", "addr:housenumber": "6", "addr:postcode": "40215", "addr:street": "H\u00fcttenstra\u00dfe", "amenity": "post_office", "brand": "Deutsche Post AG", "name": "Postfiliale 607", "opening_hours": "Mo-Fr 09:00-18:30; Sa 10:00-13:00", "ref": "607"}}, {"type": "node", "id": 310600265, "lat": 51.2186803, "lon": 6.7829375, "tags": {"addr:city": "D\u00fcsseldorf", "addr:country": "DE", "addr:housenumber": "39", "addr:postcode": "40210", "addr:street": "Graf-Adolf-Stra\u00dfe", "amenity": "cafe", "cuisine": "waffle", "name": "Pit Stop"}}, {"type": "node", "id": 310600268, "lat": 51.2195585, "lon": 6.7885002, "tags": {"addr:city": "D\u00fcsseldorf", "addr:country": "DE", "addr:housenumber": "86", "addr:postcode": "40210", "addr:street": "Graf-Adolf-Stra\u00dfe", "amenity": "bank", "atm": "yes", "brand": "Commerzbank", "brand:wikidata": "Q157617", "brand:wikipedia": "en:Commerzbank", "drive_through": "no", "fixme": "This place is definitely closed", "name": "Commerzbank", "opening_hours:covid19": "off", "operator": "Commerzbank"}}, {"type": "node", "id": 310600270, "lat": 51.2170495, "lon": 6.7836198, "tags": {"addr:city": "D\u00fcsseldorf", "addr:country": "DE", "addr:housenumber": "30", "addr:postcode": "40215", "addr:street": "H\u00fcttenstra\u00dfe", "amenity": "restaurant", "cuisine": "italian;persian;mediterranean", "delivery": "yes", "name": "La Bora \u2013 Cuccini", "opening_hours": "Mo-Fr 12:00-24:00, PH Sa-Su 14:00-24:00", "outdoor_seating": "yes", "smoking": "outside", "source": "survey", "takeaway": "yes", "website": "https://labora-cuccini.de/", "wheelchair": "yes"}}, {"type": "node", "id": 310600282, "lat": 51.2196453, "lon": 6.7822912, "tags": {"amenity": "parking_entrance", "wheelchair": "yes"}}, {"type": "node", "id": 311546053, "lat": 51.2177685, "lon": 6.7876319, "tags": {"amenity": "recycling", "location": "overground", "recycling_type": "container"}}, {"type": "node", "id": 311967132, "lat": 51.2281234, "lon": 6.7754019}, {"type": "node", "id": 313305102, "lat": 51.2233246, "lon": 6.7708472}, {"type": "node", "id": 313305104, "lat": 51.222992, "lon": 6.7703104}, {"type": "node", "id": 313305105, "lat": 51.2233737, "lon": 6.7707374}, {"type": "node", "id": 313357488, "lat": 51.2262449, "lon": 6.7719714}, {"type": "node", "id": 313357489, "lat": 51.2261933, "lon": 6.7714394}, {"type": "node", "id": 313357490, "lat": 51.2261199, "lon": 6.7710757}, {"type": "node", "id": 313357494, "lat": 51.2265139, "lon": 6.7713519}, {"type": "node", "id": 313357495, "lat": 51.2265684, "lon": 6.7714875}, {"type": "node", "id": 313357496, "lat": 51.2265594, "lon": 6.7714954}, {"type": "node", "id": 313851596, "lat": 51.2317875, "lon": 6.7709403}, {"type": "node", "id": 313851597, "lat": 51.2319613, "lon": 6.770934}, {"type": "node", "id": 313851598, "lat": 51.2332409, "lon": 6.770871}, {"type": "node", "id": 313851599, "lat": 51.2349295, "lon": 6.7706059}, {"type": "node", "id": 313851600, "lat": 51.2363609, "lon": 6.7701854}, {"type": "node", "id": 313851601, "lat": 51.2379791, "lon": 6.7695258}, {"type": "node", "id": 313851603, "lat": 51.2390192, "lon": 6.7693844}, {"type": "node", "id": 313851604, "lat": 51.2381063, "lon": 6.769842, "tags": {"barrier": "lift_gate"}}, {"type": "node", "id": 313851608, "lat": 51.2368591, "lon": 6.7705392}, {"type": "node", "id": 313851616, "lat": 51.2338461, "lon": 6.7709793}, {"type": "node", "id": 313851617, "lat": 51.2322524, "lon": 6.7714155}, {"type": "node", "id": 313851618, "lat": 51.2317898, "lon": 6.7713411}, {"type": "node", "id": 314318860, "lat": 51.2262167, "lon": 6.7736262, "tags": {"addr:city": "D\u00fcsseldorf", "addr:country": "DE", "addr:housenumber": "24", "addr:postcode": "40213", "addr:street": "Bolkerstra\u00dfe", "amenity": "bar", "name": "Twenty Four", "wheelchair": "limited"}}, {"type": "node", "id": 314321617, "lat": 51.226157, "lon": 6.7730248, "tags": {"addr:city": "D\u00fcsseldorf", "addr:country": "DE", "addr:housenumber": "14", "addr:postcode": "40213", "addr:street": "Bolkerstra\u00dfe", "amenity": "restaurant", "name": "Hausbar", "wheelchair": "limited"}}, {"type": "node", "id": 314627628, "lat": 51.2281317, "lon": 6.7765471}, {"type": "node", "id": 314627943, "lat": 51.228254, "lon": 6.7761061}, {"type": "node", "id": 315266334, "lat": 51.2214196, "lon": 6.7679817}, {"type": "node", "id": 316067058, "lat": 51.22294, "lon": 6.7704369}, {"type": "node", "id": 316776261, "lat": 51.2201511, "lon": 6.774214}, {"type": "node", "id": 316776262, "lat": 51.2207251, "lon": 6.7742191}, {"type": "node", "id": 316776263, "lat": 51.2206571, "lon": 6.774792}, {"type": "node", "id": 319115646, "lat": 51.2273511, "lon": 6.7717148, "tags": {"amenity": "fountain", "artist:wikidata": "Q2646186", "artist:wikipedia": "de:Alfred Zschorsch", "artist_name": "Alfred Zschorsch", "casting_name": "Karl-Heinz Schm\u00e4ke", "casting_name:wikidata": "Q30045676", "donator": "D\u00fcsseldorfer Jonges", "inscription": "Radschl\u00e4ger wolle mer blieve, wie jeck et de Minsche och drieve.", "material:de": "Muschelkalk, Bronze", "name": "Radschl\u00e4gerbrunnen", "subject:wikidata": "Q1272384", "subject:wikipedia": "de:D\u00fcsseldorfer Radschl\u00e4ger", "tourism": "artwork", "wikidata": "Q1720633", "wikipedia": "de:Radschl\u00e4gerbrunnen", "year_of_construction": "1954"}}, {"type": "node", "id": 334722811, "lat": 51.2280879, "lon": 6.7878655, "tags": {"amenity": "fast_food", "brand": "Subway", "brand:wikidata": "Q244457", "brand:wikipedia": "en:Subway (restaurant)", "cuisine": "sandwich", "name": "Subway", "takeaway": "yes", "wheelchair": "limited"}}, {"type": "node", "id": 336252050, "lat": 51.2300702, "lon": 6.7813026, "tags": {"addr:city": "D\u00fcsseldorf", "addr:country": "DE", "addr:housenumber": "1", "addr:postcode": "40479", "addr:street": "J\u00e4gerhofstra\u00dfe", "amenity": "library", "email": "theatermuseum@duesseldorf.de", "fax": "+49 211 89-29045", "name": "Theatermuseum", "opening_hours": "Tu-Su 13:00-20:30", "phone": "+49 211 89-96130", "ref:isil": "DE-Due71", "tourism": "museum", "website": "https://www.duesseldorf.de/theatermuseum/index.shtml", "wheelchair": "no", "wikidata": "Q1540630", "wikipedia": "de:Theatermuseum D\u00fcsseldorf"}}, {"type": "node", "id": 336308989, "lat": 51.2321001, "lon": 6.7894068, "tags": {"amenity": "pub", "name": "Rochussch\u00e4nke"}}, {"type": "node", "id": 336308997, "lat": 51.2321619, "lon": 6.7899855, "tags": {"amenity": "restaurant", "cuisine": "indian", "name": "Kirti's Dhaba", "opening_hours": "Tu-Su 12:00-15:00,18:00-23:00", "operator": "Kirti Singh Rawat", "phone": "+49 211 8 60 42 02", "website": "http://www.kirtisdhaba.de"}}, {"type": "node", "id": 336309095, "lat": 51.2202137, "lon": 6.7885926, "tags": {"addr:city": "D\u00fcsseldorf", "addr:country": "DE", "addr:housenumber": "34", "addr:postcode": "40210", "addr:street": "Grupellostra\u00dfe", "amenity": "parking", "name": "Parkhaus Contipark International", "opening_hours": "24/7", "parking": "multi-storey"}}, {"type": "node", "id": 336309110, "lat": 51.2269184, "lon": 6.7892402, "tags": {"amenity": "parking_entrance", "fee": "yes", "name": "Wehrhahn-Center", "parking": "multi-storey"}}, {"type": "node", "id": 336465923, "lat": 51.2286166, "lon": 6.7791864, "tags": {"amenity": "fountain", "artist:wikidata": "Q1960652", "artist:wikipedia": "de:Max Blondat", "artist_name": "Max Blondat", "artwork_type": "sculpture", "donator": "Albert Poensgen", "material": "bronze", "name": "M\u00e4rchenbrunnen", "tourism": "artwork", "website": "http://brunnen.blog.de/2009/09/30/duesseldorf-maerchenbrunnen-7069222/", "wikidata": "Q1957383", "wikipedia": "de:M\u00e4rchenbrunnen (D\u00fcsseldorf)", "year_of_construction": "1905 / 1985"}}, {"type": "node", "id": 339262501, "lat": 51.2298627, "lon": 6.7844457, "tags": {"amenity": "bench", "backrest": "yes", "description": "Leuchtb\u00e4nke UV-A UV-B", "emitting": "light", "material": "glass", "seats": "6"}}, {"type": "node", "id": 339262503, "lat": 51.229945, "lon": 6.7843861, "tags": {"amenity": "bench", "backrest": "yes", "description": "Leuchtb\u00e4nke UV-A UV-B", "emitting": "light", "material": "glass", "seats": "6"}}, {"type": "node", "id": 339262504, "lat": 51.2299979, "lon": 6.7845474, "tags": {"amenity": "bench", "backrest": "yes", "description": "Leuchtb\u00e4nke UV-A UV-B", "emitting": "light", "material": "glass", "seats": "6"}}, {"type": "node", "id": 339262506, "lat": 51.2299144, "lon": 6.7846074, "tags": {"amenity": "bench", "backrest": "yes", "description": "Leuchtb\u00e4nke UV-A UV-B", "emitting": "light", "material": "glass", "seats": "6"}}, {"type": "node", "id": 339262508, "lat": 51.2299643, "lon": 6.7847659, "tags": {"amenity": "bench", "backrest": "yes", "description": "Leuchtb\u00e4nke UV-A UV-B", "emitting": "light", "material": "glass", "seats": "6"}}, {"type": "node", "id": 339262510, "lat": 51.230046, "lon": 6.7847005, "tags": {"amenity": "bench", "backrest": "yes", "description": "Leuchtb\u00e4nke UV-A UV-B", "emitting": "light", "material": "glass", "seats": "6"}}, {"type": "node", "id": 339262511, "lat": 51.2300975, "lon": 6.7848672, "tags": {"amenity": "bench", "backrest": "yes", "description": "Leuchtb\u00e4nke UV-A UV-B", "emitting": "light", "material": "glass", "seats": "6"}}, {"type": "node", "id": 339262513, "lat": 51.230018, "lon": 6.7849323, "tags": {"amenity": "bench", "backrest": "yes", "description": "Leuchtb\u00e4nke UV-A UV-B", "emitting": "light", "material": "glass", "seats": "6"}}, {"type": "node", "id": 339262515, "lat": 51.2300672, "lon": 6.785091, "tags": {"amenity": "bench", "backrest": "yes", "description": "Leuchtb\u00e4nke UV-A UV-B", "emitting": "light", "material": "glass", "seats": "6"}}, {"type": "node", "id": 339262517, "lat": 51.2301472, "lon": 6.7850223, "tags": {"amenity": "bench", "backrest": "yes", "description": "Leuchtb\u00e4nke UV-A UV-B", "emitting": "light", "material": "glass", "seats": "6"}}, {"type": "node", "id": 339262518, "lat": 51.2301977, "lon": 6.785191, "tags": {"amenity": "bench", "backrest": "yes", "description": "Leuchtb\u00e4nke UV-A UV-B", "emitting": "light", "material": "glass", "seats": "6"}}, {"type": "node", "id": 339262520, "lat": 51.2301157, "lon": 6.785247, "tags": {"amenity": "bench", "backrest": "yes", "description": "Leuchtb\u00e4nke UV-A UV-B", "emitting": "light", "material": "glass", "seats": "6"}}, {"type": "node", "id": 339262522, "lat": 51.2301663, "lon": 6.7854089, "tags": {"amenity": "bench", "backrest": "yes", "description": "Leuchtb\u00e4nke UV-A UV-B", "emitting": "light", "material": "glass", "seats": "6"}}, {"type": "node", "id": 339262524, "lat": 51.2302496, "lon": 6.785353, "tags": {"amenity": "bench", "backrest": "yes", "description": "Leuchtb\u00e4nke UV-A UV-B", "emitting": "light", "material": "glass", "seats": "6"}}, {"type": "node", "id": 339265958, "lat": 51.2335557, "lon": 6.7901996, "tags": {"amenity": "restaurant", "cuisine": "italian;pizza", "delivery": "yes", "name": "La Barca", "outdoor_seating": "yes", "takeaway": "yes"}}, {"type": "node", "id": 359205826, "lat": 51.2328196, "lon": 6.7873134, "tags": {"amenity": "recycling", "location": "overground", "recycling:clothes": "yes", "recycling:glass_bottles": "yes", "recycling:paper": "yes", "recycling_type": "container"}}, {"type": "node", "id": 364565333, "lat": 51.2223456, "lon": 6.789297, "tags": {"access": "private", "amenity": "parking", "layer": "-1", "parking": "underground"}}, {"type": "node", "id": 364771521, "lat": 51.2284021, "lon": 6.7839941, "tags": {"addr:city": "D\u00fcsseldorf", "addr:country": "DE", "addr:housenumber": "1", "addr:postcode": "40211", "addr:street": "Gustaf-Gr\u00fcndgens-Platz", "amenity": "restaurant", "cuisine": "italian;international", "name": "Schillings", "opening_hours": "Tu-Su 17:00-00:00", "phone": "+49 211 55045588", "smoking": "outside", "website": "https://www.schillings-restaurant.de/", "wheelchair": "limited"}}, {"type": "node", "id": 364789204, "lat": 51.2325467, "lon": 6.7798419, "tags": {"amenity": "post_box", "collection_times": "Mo-Fr 14:45,17:00,18:00; Sa 11:15; Su 10:15", "operator": "Deutsche Post AG", "ref": "Kaiserstra\u00dfe 38, 40479 D\u00fcsseldorf"}}, {"type": "node", "id": 364813994, "lat": 51.2228219, "lon": 6.7801003, "tags": {"amenity": "parking", "capacity": "646", "fee": "yes", "layer": "-1", "mdm-id": "2519003-39[PH 39 - K\u00f6-Galerie]", "name": "K\u00f6- Galerie", "parking": "underground", "wheelchair": "yes"}}, {"type": "node", "id": 387847420, "lat": 51.2234547, "lon": 6.7892122, "tags": {"amenity": "restaurant", "name": "Vamps", "wheelchair": "limited"}}, {"type": "node", "id": 387847422, "lat": 51.2248075, "lon": 6.7887737, "tags": {"addr:city": "D\u00fcsseldorf", "addr:country": "DE", "addr:housenumber": "70", "addr:postcode": "40211", "addr:street": "Klosterstra\u00dfe", "amenity": "restaurant", "contact:phone": "+49 211 362677", "contact:website": "http://yabase-ddf.com/", "cuisine": "japanese;sushi", "level": "0", "name": "Yabase", "opening_hours": "Tu-Fr 12:00-14:00, 18:30-22:30; Sa 12:00-22:30; Su 18:00-22:30", "outdoor_seating": "no", "phone": "+49 211 362677", "website": "http://www.yabase-ddf.com"}}, {"type": "node", "id": 387847427, "lat": 51.2224937, "lon": 6.7848406, "tags": {"addr:city": "D\u00fcsseldorf", "addr:country": "DE", "addr:housenumber": "33", "addr:postcode": "40210", "addr:street": "Bismarckstra\u00dfe", "amenity": "restaurant", "cuisine": "korean", "name": "Gogi Matcha", "opening_hours": "Mo-Fr 12:00-15:00,18:00-24:00", "wheelchair": "yes"}}, {"type": "node", "id": 458490164, "lat": 51.2165667, "lon": 6.7648677, "tags": {"amenity": "restaurant", "cuisine": "italian", "fax": "+492113238563", "gay": "welcome", "name": "Ristorante Agave", "opening_hours": "Mo-Fr 12:00-14:30,18:00-23:00; Sa 18:00-23:00", "phone": "+49211308455", "source": "survey", "toilets:wheelchair": "no", "website": "http://agave-restaurant.de/", "wheelchair": "no"}}, {"type": "node", "id": 472062056, "lat": 51.2307883, "lon": 6.7808843, "tags": {"amenity": "recycling", "recycling:clothes": "yes", "recycling:glass_bottles": "yes", "recycling:paper": "yes", "recycling_type": "container"}}, {"type": "node", "id": 472076464, "lat": 51.2316428, "lon": 6.7873985, "tags": {"addr:city": "D\u00fcsseldorf", "addr:country": "DE", "addr:housenumber": "2", "addr:postcode": "40211", "addr:street": "Alt-Pempelfort", "amenity": "restaurant", "contact:website": "http://www.hirschchen.com", "cuisine": "regional;german", "name": "Hirschchen", "official_name": "*hirschchen", "opening_hours": "Mo-Th 11:30-24:00; Fr-Sa 11:30-01:00, Su 10:30-23:30", "outdoor_seating": "yes", "toilets:wheelchair": "yes", "wheelchair": "no"}}, {"type": "node", "id": 473722988, "lat": 51.2283043, "lon": 6.7850587, "tags": {"access": "private", "amenity": "parking", "name": "Hofgarten Palais", "parking": "multi-storey"}}, {"type": "node", "id": 473732279, "lat": 51.2263219, "lon": 6.7861772, "tags": {"amenity": "parking_entrance"}}, {"type": "node", "id": 473732285, "lat": 51.2264819, "lon": 6.7862269, "tags": {"amenity": "parking_entrance"}}, {"type": "node", "id": 480449572, "lat": 51.2261363, "lon": 6.780937, "tags": {"addr:city": "D\u00fcsseldorf", "addr:country": "DE", "addr:housenumber": "18", "addr:postcode": "40212", "addr:street": "Schadowplatz", "amenity": "pharmacy", "dispensing": "yes", "email": "info@schadow-apotheke.de", "fax": "+49 211 86660-33", "healthcare": "pharmacy", "name": "Schadow-Apotheke", "opening_hours": "Mo-Fr 08:30-19:00; Sa 09:00-18:00", "operator": "Karlheinz und J\u00f6rg M\u00fcller-Behrendt", "phone": "+49 211 86660-0", "website": "http://www.schadow-apotheke.de/", "wheelchair": "yes"}}, {"type": "node", "id": 480449573, "lat": 51.2262299, "lon": 6.78096, "tags": {"addr:city": "D\u00fcsseldorf", "addr:country": "DE", "addr:housenumber": "16", "addr:postcode": "40212", "addr:street": "Schadowplatz", "amenity": "cafe", "cuisine": "coffee_shop;salad;sandwich", "internet_access": "wlan", "name": "Woyton", "opening_hours": "Mo-Fr 07:30-20:00; Sa 08:30-20:00; Su 11:00-18:00", "phone": "+49 211 8639569", "website": "http://www.woyton.de/", "wheelchair": "limited"}}, {"type": "node", "id": 481083583, "lat": 51.2263712, "lon": 6.7723603, "tags": {"addr:city": "D\u00fcsseldorf", "addr:country": "DE", "addr:housenumber": "11", "addr:postcode": "40213", "addr:street": "Burgplatz", "amenity": "gambling", "name": "Merkur Spielothek"}}, {"type": "node", "id": 483444183, "lat": 51.2380719, "lon": 6.7697989, "tags": {"access": "yes", "barrier": "lift_gate"}}, {"type": "node", "id": 486421916, "lat": 51.2202607, "lon": 6.7795083, "tags": {"addr:city": "D\u00fcsseldorf", "addr:country": "DE", "addr:housenumber": "92", "addr:postcode": "40212", "addr:street": "K\u00f6nigsallee", "amenity": "restaurant", "cuisine": "steak_house", "name": "Maredo (K\u00f6nigsallee)", "opening_hours": "Su-Th 11:30-23:00; Fr-Sa 11:30-00:00", "operator": "Maredo", "phone": "+49 211 320619", "toilets:wheelchair": "no", "wheelchair": "yes"}}, {"type": "node", "id": 486421922, "lat": 51.2188362, "lon": 6.7772888, "tags": {"amenity": "taxi", "capacity": "2", "name": "Taxi-D\u00fcsseldorf \"GAP\"", "opening_hours": "24/7", "operator": "Taxi-D\u00fcsseldorf e. G.", "phone": "+4921199999", "website": "https://www.taxi-duesseldorf.com/"}}, {"type": "node", "id": 486536977, "lat": 51.2322827, "lon": 6.7712962}, {"type": "node", "id": 486536981, "lat": 51.2333334, "lon": 6.7713222}, {"type": "node", "id": 488401943, "lat": 51.2184831, "lon": 6.77653, "tags": {"addr:city": "D\u00fcsseldorf", "addr:country": "DE", "addr:housenumber": "6", "addr:postcode": "40213", "addr:street": "Graf-Adolf-Platz", "amenity": "fast_food", "cuisine": "turkish", "diet:vegetarian": "yes", "name": "Anadolu", "opening_hours": "Mo-Sa 07:00-22:00, Su 10:00-22:00", "outdoor_seating": "yes", "smoking": "outside", "wheelchair": "limited"}}, {"type": "node", "id": 488401980, "lat": 51.2185414, "lon": 6.7771277, "tags": {"addr:city": "D\u00fcsseldorf", "addr:country": "DE", "addr:housenumber": "2", "addr:postcode": "40217", "addr:street": "Friedrichstra\u00dfe", "amenity": "pharmacy", "contact:website": "http://www.k\u00f6nigs-apotheke-d\u00fcsseldorf.de/", "healthcare": "pharmacy", "name": "K\u00f6nigs-Apotheke", "opening_hours": "Mo-Fr 8:00-18:30; Sa 9:30-14:00", "toilets:wheelchair": "no", "wheelchair": "yes"}}, {"type": "node", "id": 495315234, "lat": 51.2300311, "lon": 6.7885236, "tags": {"barrier": "gate", "bicycle": "no", "foot": "no"}}, {"type": "node", "id": 495315352, "lat": 51.2301832, "lon": 6.7885182}, {"type": "node", "id": 495315355, "lat": 51.2301196, "lon": 6.7881453}, {"type": "node", "id": 495315356, "lat": 51.230056, "lon": 6.7879735}, {"type": "node", "id": 495315361, "lat": 51.2300661, "lon": 6.7886132}, {"type": "node", "id": 495315364, "lat": 51.2299886, "lon": 6.7882884}, {"type": "node", "id": 506284213, "lat": 51.2300636, "lon": 6.7881994}, {"type": "node", "id": 506284215, "lat": 51.2300746, "lon": 6.7882289}, {"type": "node", "id": 506284217, "lat": 51.2300562, "lon": 6.788246}, {"type": "node", "id": 506284218, "lat": 51.2300814, "lon": 6.7883154}, {"type": "node", "id": 558620876, "lat": 51.224995, "lon": 6.7880618, "tags": {"addr:city": "D\u00fcsseldorf", "addr:country": "DE", "addr:housenumber": "55", "addr:postcode": "40211", "addr:street": "Oststra\u00dfe", "amenity": "restaurant", "cuisine": "noodle", "description": "\u306a\u306b\u308f", "name": "NA NI WA - noodles & soup", "opening_hours": "Mo, We-Su 11:30-22:30", "phone": "+49 211 161799", "website": "http://www.naniwa.de", "wheelchair": "yes"}}, {"type": "node", "id": 558620878, "lat": 51.2249091, "lon": 6.7884591, "tags": {"addr:city": "D\u00fcsseldorf", "addr:country": "DE", "addr:housenumber": "68a", "addr:postcode": "40211", "addr:street": "Klosterstra\u00dfe", "alt_name": "Na Ni Wa", "amenity": "restaurant", "cuisine": "sushi", "name": "Naniwa", "name:de": "Naniwa", "name:ja": "\u306a\u306b\u308f", "operator": "K&M Restaurant GmbH", "phone": "+49 211 8302222", "toilets:wheelchair": "no", "website": "http://www.naniwa.de/", "wheelchair": "limited"}}, {"type": "node", "id": 577291776, "lat": 51.2169313, "lon": 6.7766837, "tags": {"addr:city": "D\u00fcsseldorf", "addr:country": "DE", "addr:housenumber": "33", "addr:postcode": "40217", "addr:street": "Friedrichstra\u00dfe", "amenity": "pharmacy", "dispensing": "yes", "fax": "+49 211 372454", "healthcare": "pharmacy", "name": "Friedrich Apotheke", "opening_hours": "Mo-Fr 08:00-19:00; Sa 09:00-15:00; Su,PH off", "phone": "+49 211 378483", "website": "https://www.apotheken.de/club/40217/friedrich-apotheke/", "wheelchair": "no"}}, {"type": "node", "id": 577291790, "lat": 51.2173268, "lon": 6.7783217}, {"type": "node", "id": 577291792, "lat": 51.217813, "lon": 6.7769652, "tags": {"amenity": "atm", "description": "Geldautomat in Telefonzelle", "operator": "Sparkasse D\u00fcsseldorf", "wheelchair": "no"}}, {"type": "node", "id": 577291795, "lat": 51.219081, "lon": 6.7805366, "tags": {"addr:city": "D\u00fcsseldorf", "addr:country": "DE", "addr:housenumber": "18", "addr:postcode": "40212", "addr:street": "Graf-Adolf-Stra\u00dfe", "amenity": "pharmacy", "check_date": "2020-03-21", "contact:email": "wa@wappen-apotheke.de", "contact:facebook": "https://www.facebook.com/Wappen-Apotheke-D\u00fcsseldorf-428702180519504/", "contact:fax": "+49 211 325976", "contact:phone": "+49 211 325900", "contact:website": "http://wappen-apotheke.de/", "dispensing": "yes", "healthcare": "pharmacy", "name": "Wappen Apotheke", "opening_hours": "Mo-Fr 08:00-19:00; Sa 10:00-15:00; PH off", "operator": "Assia A. Efimova", "start_date": "1973-08-17"}}, {"type": "node", "id": 577291800, "lat": 51.218682, "lon": 6.7827773, "tags": {"addr:city": "D\u00fcsseldorf", "addr:country": "DE", "addr:housenumber": "35", "addr:postcode": "40210", "addr:street": "Graf-Adolf-Stra\u00dfe", "amenity": "pharmacy", "healthcare": "pharmacy", "name": "Atrium Apotheke", "phone": "+49 211-9874090", "website": "https://www.atriumapotheke.com/", "wheelchair": "yes"}}, {"type": "node", "id": 581965025, "lat": 51.2263867, "lon": 6.7751985, "tags": {"addr:city": "D\u00fcsseldorf", "addr:country": "DE", "addr:housenumber": "48", "addr:postcode": "40213", "addr:street": "Bolkerstra\u00dfe", "alt_name": "Kentucky Fried Chicken", "amenity": "fast_food", "brand": "KFC", "brand:wikidata": "Q524757", "brand:wikipedia": "en:KFC", "cuisine": "chicken", "name": "KFC", "takeaway": "yes", "toilets:wheelchair": "yes", "wheelchair": "yes"}}, {"type": "node", "id": 581965253, "lat": 51.2267273, "lon": 6.7753458, "tags": {"addr:city": "D\u00fcsseldorf", "addr:country": "DE", "addr:housenumber": "13", "addr:postcode": "40213", "addr:street": "Hunsr\u00fcckenstra\u00dfe", "amenity": "pub", "name": "Fatty's Irish Pub", "opening_hours": "Mo-Th 17:00-03:00, Fr 17:00-01:00, Sa-Su 12:00-03:00", "phone": "+49 211 322174", "website": "http://www.fattysirishpub.com"}}, {"type": "node", "id": 581965273, "lat": 51.2268648, "lon": 6.7753298, "tags": {"addr:city": "D\u00fcsseldorf", "addr:country": "DE", "addr:housenumber": "5", "addr:postcode": "40213", "addr:street": "Hunsr\u00fcckenstra\u00dfe", "amenity": "pub", "email": "info@suttonsirishpub.de", "name": "Sutton's Irish Pub", "opening_hours": "Mo-Th 12:00-03:00, Fr-Sa 12:00-05:00, Su 12:00-03:00", "phone": "+49 211 133951", "website": "http://www.suttonsirishpub.de"}}, {"type": "node", "id": 581965311, "lat": 51.2266422, "lon": 6.7760862, "tags": {"addr:city": "D\u00fcsseldorf", "addr:country": "DE", "addr:housenumber": "33", "addr:postcode": "40213", "addr:street": "Neustra\u00dfe", "amenity": "restaurant", "name": "Asia Loi"}}, {"type": "node", "id": 582878681, "lat": 51.2228721, "lon": 6.7705991}, {"type": "node", "id": 582878687, "lat": 51.22284, "lon": 6.7706769}, {"type": "node", "id": 582878699, "lat": 51.2228479, "lon": 6.7706576}, {"type": "node", "id": 582878706, "lat": 51.2230122, "lon": 6.770803}, {"type": "node", "id": 582878710, "lat": 51.2229443, "lon": 6.7709497}, {"type": "node", "id": 582878717, "lat": 51.2230575, "lon": 6.7711303}, {"type": "node", "id": 582878718, "lat": 51.2230306, "lon": 6.7711112}, {"type": "node", "id": 582878733, "lat": 51.2230543, "lon": 6.7710309}, {"type": "node", "id": 582878734, "lat": 51.2230209, "lon": 6.7712541}, {"type": "node", "id": 582879079, "lat": 51.2262036, "lon": 6.7715061}, {"type": "node", "id": 582879081, "lat": 51.2263477, "lon": 6.7719903}, {"type": "node", "id": 582879082, "lat": 51.2263768, "lon": 6.7719666}, {"type": "node", "id": 582879084, "lat": 51.2265838, "lon": 6.7715744}, {"type": "node", "id": 582879088, "lat": 51.2238117, "lon": 6.7733408}, {"type": "node", "id": 582918154, "lat": 51.2282039, "lon": 6.7712062}, {"type": "node", "id": 582918155, "lat": 51.2281284, "lon": 6.7712558}, {"type": "node", "id": 582918156, "lat": 51.2281497, "lon": 6.7713394}, {"type": "node", "id": 582918159, "lat": 51.2281242, "lon": 6.7719398}, {"type": "node", "id": 582918161, "lat": 51.2280889, "lon": 6.7717626}, {"type": "node", "id": 582918176, "lat": 51.2281509, "lon": 6.7717122}, {"type": "node", "id": 582918178, "lat": 51.2280816, "lon": 6.7714494}, {"type": "node", "id": 582918179, "lat": 51.2280696, "lon": 6.7713958}, {"type": "node", "id": 582918180, "lat": 51.2280598, "lon": 6.7714459}, {"type": "node", "id": 582918181, "lat": 51.2280728, "lon": 6.7714544}, {"type": "node", "id": 582918184, "lat": 51.2281251, "lon": 6.7716994}, {"type": "node", "id": 582918186, "lat": 51.2283443, "lon": 6.7713662}, {"type": "node", "id": 582918187, "lat": 51.2283222, "lon": 6.7712445}, {"type": "node", "id": 582918188, "lat": 51.2283556, "lon": 6.771358}, {"type": "node", "id": 582918190, "lat": 51.2283084, "lon": 6.7712564}, {"type": "node", "id": 582918192, "lat": 51.228233, "lon": 6.7712861}, {"type": "node", "id": 582918193, "lat": 51.2282547, "lon": 6.7712921}, {"type": "node", "id": 582918198, "lat": 51.2281104, "lon": 6.7717234}, {"type": "node", "id": 582918208, "lat": 51.2281399, "lon": 6.7717195}, {"type": "node", "id": 582918209, "lat": 51.2281364, "lon": 6.7717061}, {"type": "node", "id": 582918210, "lat": 51.2281144, "lon": 6.7717065}, {"type": "node", "id": 582918333, "lat": 51.2284275, "lon": 6.7716759}, {"type": "node", "id": 582986009, "lat": 51.2226284, "lon": 6.7719564}, {"type": "node", "id": 582986163, "lat": 51.2237364, "lon": 6.7727698, "tags": {"addr:city": "D\u00fcsseldorf", "addr:country": "DE", "addr:housenumber": "1", "addr:postcode": "40213", "addr:street": "Carlsplatz", "amenity": "restaurant", "email": "info@laurasdeli.de", "name": "Laura's Deli", "opening_hours": "Mo-Fr 08:30-18:30; Sa 09:00-18:00; Su,PH off", "phone": "+49 211 86933880", "takeaway": "yes", "website": "https://www.laurasdeli.de/", "wheelchair": "no"}}, {"type": "node", "id": 582986164, "lat": 51.2236227, "lon": 6.7727763, "tags": {"amenity": "pharmacy", "dispensing": "yes", "drive_through": "no", "healthcare": "pharmacy", "name": "Hirsch-Apotheke", "wheelchair": "no"}}, {"type": "node", "id": 582986343, "lat": 51.2259915, "lon": 6.7708728, "tags": {"addr:city": "D\u00fcsseldorf", "addr:country": "DE", "addr:housenumber": "8", "addr:postcode": "40213", "addr:street": "Rathausufer", "amenity": "nightclub", "name": "Ufer 8"}}, {"type": "node", "id": 584046517, "lat": 51.2220035, "lon": 6.7718755}, {"type": "node", "id": 584046520, "lat": 51.2219976, "lon": 6.771867}, {"type": "node", "id": 584046528, "lat": 51.2219898, "lon": 6.7718461}, {"type": "node", "id": 584046529, "lat": 51.2220006, "lon": 6.7718289}, {"type": "node", "id": 584046535, "lat": 51.2220652, "lon": 6.7718295}, {"type": "node", "id": 584046553, "lat": 51.2218291, "lon": 6.7722584}, {"type": "node", "id": 584046563, "lat": 51.2220427, "lon": 6.7721384}, {"type": "node", "id": 584046570, "lat": 51.2220433, "lon": 6.7720714}, {"type": "node", "id": 584046576, "lat": 51.2219071, "lon": 6.7722606}, {"type": "node", "id": 584046588, "lat": 51.2220799, "lon": 6.771832}, {"type": "node", "id": 584046591, "lat": 51.2220901, "lon": 6.7718505}, {"type": "node", "id": 584046592, "lat": 51.2220814, "lon": 6.7718698}, {"type": "node", "id": 584046595, "lat": 51.2220754, "lon": 6.771878}, {"type": "node", "id": 584046652, "lat": 51.2218254, "lon": 6.7725896}, {"type": "node", "id": 584046662, "lat": 51.2218682, "lon": 6.7726053}, {"type": "node", "id": 584046665, "lat": 51.2218684, "lon": 6.7725872}, {"type": "node", "id": 584046667, "lat": 51.221844, "lon": 6.7725865}, {"type": "node", "id": 584046670, "lat": 51.2218438, "lon": 6.7726042}, {"type": "node", "id": 584046673, "lat": 51.2218252, "lon": 6.7726037}, {"type": "node", "id": 584046688, "lat": 51.2219031, "lon": 6.7726063}, {"type": "node", "id": 584046690, "lat": 51.2219507, "lon": 6.7725844}, {"type": "node", "id": 584046696, "lat": 51.2219526, "lon": 6.7724161}, {"type": "node", "id": 584046698, "lat": 51.2220124, "lon": 6.7722804}, {"type": "node", "id": 584046701, "lat": 51.2220146, "lon": 6.7721411}, {"type": "node", "id": 584046777, "lat": 51.2221108, "lon": 6.772589}, {"type": "node", "id": 584046787, "lat": 51.2221109, "lon": 6.7725781}, {"type": "node", "id": 584046794, "lat": 51.2220622, "lon": 6.7723077}, {"type": "node", "id": 584046900, "lat": 51.2223141, "lon": 6.7727378, "tags": {"addr:city": "D\u00fcsseldorf", "addr:country": "DE", "addr:housenumber": "7-9", "addr:postcode": "40213", "addr:street": "Bilker Stra\u00dfe", "amenity": "arts_centre", "name": "Palais Wittgenstein", "website": "https://www2.duesseldorf.de/kulturamt/foerderung/musik/konzerte-palais-wittgenstein.html", "wheelchair": "no", "wikidata": "Q2047225"}}, {"type": "node", "id": 584046935, "lat": 51.2224523, "lon": 6.7718432}, {"type": "node", "id": 584046939, "lat": 51.2224524, "lon": 6.7718605}, {"type": "node", "id": 584046942, "lat": 51.2224699, "lon": 6.7718438}, {"type": "node", "id": 584046952, "lat": 51.2226299, "lon": 6.7718495}, {"type": "node", "id": 584046968, "lat": 51.2224486, "lon": 6.7720842}, {"type": "node", "id": 584046975, "lat": 51.2225764, "lon": 6.7723544}, {"type": "node", "id": 584047012, "lat": 51.2224641, "lon": 6.7725807}, {"type": "node", "id": 584047015, "lat": 51.222463, "lon": 6.7725188}, {"type": "node", "id": 584047018, "lat": 51.2224813, "lon": 6.7725193}, {"type": "node", "id": 584047020, "lat": 51.2224909, "lon": 6.7725047}, {"type": "node", "id": 584047027, "lat": 51.2224916, "lon": 6.7723505}, {"type": "node", "id": 584047032, "lat": 51.2225746, "lon": 6.7725075}, {"type": "node", "id": 584047035, "lat": 51.2225307, "lon": 6.7725832}, {"type": "node", "id": 584047056, "lat": 51.2225978, "lon": 6.7725864}, {"type": "node", "id": 584047064, "lat": 51.2225819, "lon": 6.7725237}, {"type": "node", "id": 584047067, "lat": 51.2225991, "lon": 6.7725241}, {"type": "node", "id": 587723059, "lat": 51.2235774, "lon": 6.7697294}, {"type": "node", "id": 587723060, "lat": 51.2235744, "lon": 6.7697081}, {"type": "node", "id": 587723062, "lat": 51.2235978, "lon": 6.7696564}, {"type": "node", "id": 587723064, "lat": 51.2236075, "lon": 6.7696147}, {"type": "node", "id": 587723066, "lat": 51.2236552, "lon": 6.7696482}, {"type": "node", "id": 587723068, "lat": 51.223702, "lon": 6.7696775}, {"type": "node", "id": 587723070, "lat": 51.2236581, "lon": 6.7697911}, {"type": "node", "id": 587723072, "lat": 51.2236434, "lon": 6.7697964}, {"type": "node", "id": 587727270, "lat": 51.2236703, "lon": 6.7696578}, {"type": "node", "id": 587727271, "lat": 51.2236333, "lon": 6.7696323}, {"type": "node", "id": 587733543, "lat": 51.2236932, "lon": 6.7697088}, {"type": "node", "id": 592632718, "lat": 51.2207168, "lon": 6.768265}, {"type": "node", "id": 592632721, "lat": 51.2207325, "lon": 6.7682734}, {"type": "node", "id": 592632731, "lat": 51.2215672, "lon": 6.7681408}, {"type": "node", "id": 592632738, "lat": 51.2212939, "lon": 6.7685819}, {"type": "node", "id": 592632739, "lat": 51.2212764, "lon": 6.7685725}, {"type": "node", "id": 592632741, "lat": 51.2214317, "lon": 6.7686911}, {"type": "node", "id": 592632742, "lat": 51.2214198, "lon": 6.7687465}, {"type": "node", "id": 592632743, "lat": 51.2214482, "lon": 6.7686997}, {"type": "node", "id": 592632744, "lat": 51.2214396, "lon": 6.7687572}, {"type": "node", "id": 592632766, "lat": 51.2214008, "lon": 6.7689421}, {"type": "node", "id": 597180793, "lat": 51.2204066, "lon": 6.7742065}, {"type": "node", "id": 597180796, "lat": 51.2205911, "lon": 6.7742138}, {"type": "node", "id": 597180805, "lat": 51.2201463, "lon": 6.7745345}, {"type": "node", "id": 597866793, "lat": 51.2192154, "lon": 6.7745234, "tags": {"addr:city": "D\u00fcsseldorf", "addr:country": "DE", "addr:housenumber": "30", "addr:postcode": "40213", "addr:street": "Haroldstra\u00dfe", "amenity": "restaurant", "diet:vegetarian": "yes", "name": "Brazil's Restaurant", "wheelchair": "no"}}, {"type": "node", "id": 600103850, "lat": 51.2235948, "lon": 6.7888404, "tags": {"amenity": "restaurant", "cuisine": "japanese", "email": "info@brickny.com", "name": "Takumi", "opening_hours": "Mo-Fr 12:00-22:30; Sa 11:45-21:45; Su 12:00-22:00", "phone": "+49 211 1793308", "website": "http://brickny.com/takumi", "wheelchair": "limited"}}, {"type": "node", "id": 604970836, "lat": 51.2281543, "lon": 6.7880549, "tags": {"amenity": "driving_school", "name": "City-Fahrschule"}}, {"type": "node", "id": 615876297, "lat": 51.2187127, "lon": 6.7815903, "tags": {"addr:city": "D\u00fcsseldorf", "addr:country": "DE", "addr:housenumber": "25", "addr:postcode": "40212", "addr:street": "Graf-Adolf-Stra\u00dfe", "amenity": "restaurant", "cuisine": "pasta;italian;pizza", "email": "info@danoi-online.de", "name": "da noi", "opening_hours": "Mo-Th 11:30-23:00; Fr-Sa 11:30-24:00; Su 14:00-23:00", "phone": "+49 211 1576541", "website": "https://www.danoi-online.de/", "wheelchair": "limited"}}, {"type": "node", "id": 618035113, "lat": 51.2397843, "lon": 6.7744597}, {"type": "node", "id": 618035114, "lat": 51.2361799, "lon": 6.7767744}, {"type": "node", "id": 618035461, "lat": 51.2369471, "lon": 6.7739017}, {"type": "node", "id": 618035462, "lat": 51.2374551, "lon": 6.7756327}, {"type": "node", "id": 618035463, "lat": 51.2397013, "lon": 6.7740374}, {"type": "node", "id": 626135912, "lat": 51.2273655, "lon": 6.7857296, "tags": {"amenity": "clock"}}, {"type": "node", "id": 626135915, "lat": 51.2275464, "lon": 6.7859615, "tags": {"addr:city": "D\u00fcsseldorf", "addr:country": "DE", "addr:housenumber": "72", "addr:postcode": "40212", "addr:street": "Schadowstra\u00dfe", "amenity": "pharmacy", "fax": "+49 211 36119682", "healthcare": "pharmacy", "name": "Pharma-Ko\u00b3", "opening_hours": "Mo-Sa 8:30-20:00", "phone": "+49 211 36119680", "website": "http://www.pharma-ko3.de/", "wheelchair": "yes"}}, {"type": "node", "id": 626135916, "lat": 51.2273778, "lon": 6.7858079, "tags": {"amenity": "bicycle_parking", "bicycle_parking": "stands", "capacity": "8"}}, {"type": "node", "id": 626135917, "lat": 51.2275944, "lon": 6.7860737, "tags": {"addr:city": "D\u00fcsseldorf", "addr:country": "DE", "addr:housenumber": "74", "addr:postcode": "40212", "addr:street": "Schadowstra\u00dfe", "amenity": "bank", "atm": "yes", "brand": "Targobank", "brand:wikidata": "Q1455437", "brand:wikipedia": "en:Targobank", "name": "Targobank", "operator": "Targobank", "wheelchair": "yes"}}, {"type": "node", "id": 626135921, "lat": 51.2277543, "lon": 6.7865535, "tags": {"amenity": "pharmacy", "healthcare": "pharmacy", "name": "medi Apotheke", "opening_hours": "Mo-Fr 08:00-19:00; Sa 10:00-18:00", "phone": "+49 211 354850", "website": "http://www.medi-apotheke.com/", "wheelchair": "yes"}}, {"type": "node", "id": 626135927, "lat": 51.228167, "lon": 6.7874834, "tags": {"amenity": "pharmacy", "fax": "+49 211 352816", "healthcare": "pharmacy", "name": "Jacobi Apotheke", "opening_hours": "Mo-Fr 8:30-19:00; Sa 9:30-16:00", "phone": "+49 211 351201", "website": "https://www.apo-jacobi.de/", "wheelchair": "yes"}}, {"type": "node", "id": 648226568, "lat": 51.2333309, "lon": 6.771213}, {"type": "node", "id": 650769856, "lat": 51.2179612, "lon": 6.7664571, "tags": {"amenity": "vending_machine", "vending": "parking_tickets"}}, {"type": "node", "id": 650773550, "lat": 51.2183324, "lon": 6.765318, "tags": {"amenity": "vending_machine", "check_date": "2021-07-02", "operator": "Landeshauptstadt D\u00fcsseldorf", "vending": "parking_tickets"}}, {"type": "node", "id": 660956585, "lat": 51.2231107, "lon": 6.7731079}, {"type": "node", "id": 660956586, "lat": 51.2231573, "lon": 6.773109}, {"type": "node", "id": 660956624, "lat": 51.2231015, "lon": 6.7741169}, {"type": "node", "id": 660956625, "lat": 51.2231481, "lon": 6.774118}, {"type": "node", "id": 660960687, "lat": 51.2231508, "lon": 6.7742969}, {"type": "node", "id": 660960688, "lat": 51.2231854, "lon": 6.7742973}, {"type": "node", "id": 660960689, "lat": 51.2231804, "lon": 6.774929}, {"type": "node", "id": 660960690, "lat": 51.2231458, "lon": 6.7749286}, {"type": "node", "id": 661005216, "lat": 51.2216383, "lon": 6.7759057}, {"type": "node", "id": 661168798, "lat": 51.2281584, "lon": 6.7764763}, {"type": "node", "id": 661168807, "lat": 51.2282528, "lon": 6.7762047}, {"type": "node", "id": 661168810, "lat": 51.2281348, "lon": 6.7765292}, {"type": "node", "id": 661217144, "lat": 51.2290693, "lon": 6.7749963, "tags": {"addr:city": "D\u00fcsseldorf", "addr:country": "DE", "addr:housenumber": "2", "addr:postcode": "40213", "addr:street": "Neubr\u00fcckstra\u00dfe", "amenity": "pub", "email": "info@beuys-bar.com", "name": "Beuys Bar", "opening_hours": "Tu-Th 18:00-02:00, Fr-Sa 19:00-03:00", "phone": "+49 173 9603109", "website": "https://beuys-bar.com/"}}, {"type": "node", "id": 666210219, "lat": 51.2187544, "lon": 6.7860526, "tags": {"addr:city": "D\u00fcsseldorf", "addr:country": "DE", "addr:housenumber": "61", "addr:postcode": "40210", "addr:street": "Graf-Adolf-Stra\u00dfe", "amenity": "college", "fax": "+49 211 3858136", "name": "D\u00fcsseldorfer Akademie f\u00fcr Marketing-Kommunikation", "note": "Verwaltung; Unterricht in der FH D\u00fcsseldorf", "phone": "+49 211 373900", "website": "https://www.damk.de/", "wheelchair": "no", "wikipedia": "de:D\u00fcsseldorfer Akademie f\u00fcr Marketing-Kommunikation"}}, {"type": "node", "id": 666259298, "lat": 51.2225099, "lon": 6.7821708, "tags": {"addr:city": "D\u00fcsseldorf", "addr:country": "DE", "addr:housenumber": "33", "addr:postcode": "40212", "addr:street": "Berliner Allee", "alt_name": "SSK D\u00fcsseldorf", "amenity": "bank", "name": "Stadtsparkasse D\u00fcsseldorf", "operator": "Stadtsparkasse D\u00fcsseldorf", "wheelchair": "yes"}}, {"type": "node", "id": 670079881, "lat": 51.2241632, "lon": 6.7706543, "tags": {"addr:city": "D\u00fcsseldorf", "addr:country": "DE", "addr:housenumber": "4", "addr:postcode": "40213", "addr:street": "Schulstra\u00dfe", "amenity": "library", "name": "Archiv und Bibliothek des Filmmuseums", "ref:isil": "DE-Due73", "website": "https://www.duesseldorf.de/filmmuseum/archive.html"}}, {"type": "node", "id": 670079887, "lat": 51.2278927, "lon": 6.7717793, "tags": {"amenity": "library", "name": "Pfarrarchiv St. Lambertus", "wheelchair": "yes"}}, {"type": "node", "id": 670079892, "lat": 51.2304676, "lon": 6.7721562, "tags": {"addr:city": "D\u00fcsseldorf", "addr:country": "DE", "addr:housenumber": "1b", "addr:postcode": "40213", "addr:street": "Reuterkaserne", "amenity": "library", "email": "archiv@kunstakademie-duesseldorf.de", "name": "Archiv der Kunstakademie", "ref:isil": "DE-Due18", "website": "https://www.kunstakademie-duesseldorf.de/einrichtungen/archiv.html"}}, {"type": "node", "id": 670666754, "lat": 51.2259362, "lon": 6.783065, "tags": {"addr:city": "D\u00fcsseldorf", "addr:country": "DE", "addr:housenumber": "4", "addr:postcode": "40212", "addr:street": "Berliner Allee", "amenity": "cafe", "brand": "Coffee Fellows", "brand:wikidata": "Q23461429", "brand:wikipedia": "en:Coffee Fellows", "contact:phone": "+49 211 17930962", "contact:website": "https://www.coffee-fellows.com/locations/coffee-fellows-duesseldorf-berliner-allee/", "cuisine": "coffee_shop", "name": "Coffee Fellows", "opening_hours": "Mo-Th 06:00-21:00; Fr-Sa 07:00-21:00; Su 09:00-20:00", "takeaway": "yes", "wheelchair": "yes"}}, {"type": "node", "id": 671436231, "lat": 51.2221919, "lon": 6.7730195, "tags": {"addr:city": "D\u00fcsseldorf", "addr:country": "DE", "addr:housenumber": "12-14", "addr:postcode": "40213", "addr:street": "Bilker Stra\u00dfe", "amenity": "library", "email": "heineinstitut@duesseldorf.de", "fax": "+49 211 89-29044", "name": "Heinrich-Heine-Institut", "opening_hours": "Tu-Su 11:00-17:00; Sa 13:00-17:00", "phone": "+49 211 89-92902", "ref:isil": "DE-710", "tourism": "museum", "website": "https://www2.duesseldorf.de/heineinstitut.html", "wheelchair": "no", "wikidata": "Q28738401", "wikipedia": "de:Heinrich-Heine-Institut"}}, {"type": "node", "id": 672754481, "lat": 51.2300432, "lon": 6.7812781, "tags": {"addr:city": "D\u00fcsseldorf", "addr:country": "DE", "addr:housenumber": "1", "addr:postcode": "40479", "addr:street": "J\u00e4gerhofstra\u00dfe", "amenity": "library", "name": "Dumont-Lindemann-Archiv", "ref:isil": "DE-Due71"}}, {"type": "node", "id": 673550536, "lat": 51.2278525, "lon": 6.7869323, "tags": {"addr:city": "D\u00fcsseldorf", "addr:country": "DE", "addr:housenumber": "86-88", "addr:postcode": "40212", "addr:street": "Schadowstra\u00dfe", "amenity": "restaurant", "cuisine": "italian;pizza;pasta;sandwich", "name": "Buster Pasta", "opening_hours": "Su-Th 11:00-00:00; Fr-Sa 11:00-01:00", "outdoor_seating": "yes", "phone": "+49 211 86046070", "website": "http://buster-pasta.de", "wheelchair": "yes"}}, {"type": "node", "id": 677747895, "lat": 51.2190501, "lon": 6.7815665, "tags": {"addr:city": "D\u00fcsseldorf", "addr:country": "DE", "addr:housenumber": "61", "addr:postcode": "40212", "addr:street": "Berliner Allee", "amenity": "cafe", "name": "Simon's Brotk\u00f6rbchen", "shop": "bakery", "wheelchair": "yes"}}, {"type": "node", "id": 677747899, "lat": 51.2282366, "lon": 6.7871052, "tags": {"amenity": "cafe", "name": "Mr Bens Caf\u00e9", "wheelchair": "yes"}}, {"type": "node", "id": 678879740, "lat": 51.2265227, "lon": 6.775379, "tags": {"addr:city": "D\u00fcsseldorf", "addr:country": "DE", "addr:housenumber": "21", "addr:postcode": "40213", "addr:street": "Hunsr\u00fcckenstra\u00dfe", "amenity": "fast_food", "cuisine": "pizza", "name": "Pizzaria Matteo", "toilets:wheelchair": "no", "wheelchair": "limited"}}, {"type": "node", "id": 678879741, "lat": 51.2266556, "lon": 6.7766774}, {"type": "node", "id": 678879744, "lat": 51.2248445, "lon": 6.781821, "tags": {"addr:city": "D\u00fcsseldorf", "addr:country": "DE", "addr:housenumber": "28", "addr:postcode": "40212", "addr:street": "Martin-Luther-Platz", "amenity": "restaurant", "brand": "Vapiano", "brand:wikidata": "Q506252", "brand:wikipedia": "en:Vapiano", "cuisine": "italian", "email": "duesseldorf1@vapiano.de", "fax": "+49 211 61733-67", "name": "Vapiano", "opening_hours": "Mo-Th 10:00-24:00, Fr-Sa 10:00-01:00, Su 12:00-23:00", "opening_hours:kitchen": "Mo-Th 11:30-23:00; Fr-Sa 11:30-24:00; So 12:00-22:30", "phone": "+49 211 61733-66", "toilets:wheelchair": "no", "website": "https://www.vapiano.com/", "wheelchair": "limited"}}, {"type": "node", "id": 678879747, "lat": 51.2248738, "lon": 6.7819342, "tags": {"addr:city": "D\u00fcsseldorf", "addr:country": "DE", "addr:housenumber": "11", "addr:postcode": "40212", "addr:street": "Schadowstra\u00dfe", "amenity": "parking_entrance", "capacity": "448", "fee": "yes", "maxheight": "2", "mdm-id": "2519003-46[PH 46 - SCHADOW ARKADEN]", "name": "Schadow-Arkaden", "parking": "underground", "website": "http://www.schadow-arkaden.de/", "wheelchair": "yes", "wikidata": "Q2229888", "wikipedia": "de:Schadow-Arkaden"}}, {"type": "node", "id": 679757995, "lat": 51.2254219, "lon": 6.7788929, "tags": {"amenity": "fountain", "name": "Triton-Brunnen", "tourism": "attraction", "wheelchair": "no", "wikidata": "Q2454334", "wikipedia": "de:Tritonenbrunnen (D\u00fcsseldorf)"}}, {"type": "node", "id": 679758001, "lat": 51.2255962, "lon": 6.7791054, "tags": {"alt_name": "Schlanke Else", "amenity": "clock", "colour": "#3c464f", "date": "no", "display": "analog", "faces": "4", "material": "metal", "name": "Gr\u00fcne Mathilde", "start_date": "1905", "support": "pedestal", "visibility": "street"}}, {"type": "node", "id": 687006527, "lat": 51.2266014, "lon": 6.776496, "tags": {"amenity": "nightclub", "name": "Alhambra", "wheelchair": "no"}}, {"type": "node", "id": 687006539, "lat": 51.2263617, "lon": 6.776981, "tags": {"amenity": "vending_machine", "level": "-1", "name": "coffee to go", "vending": "drinks"}}, {"type": "node", "id": 687006540, "lat": 51.2266675, "lon": 6.776848, "tags": {"amenity": "vending_machine", "level": "-1", "name": "cold drinks", "vending": "drinks"}}, {"type": "node", "id": 687006541, "lat": 51.2264952, "lon": 6.7768204, "tags": {"amenity": "vending_machine", "level": "-1", "vending": "sweets"}}, {"type": "node", "id": 687006542, "lat": 51.2265003, "lon": 6.7768205, "tags": {"amenity": "vending_machine", "level": "-1", "vending": "sweets"}}, {"type": "node", "id": 687006543, "lat": 51.2266578, "lon": 6.7768479, "tags": {"amenity": "vending_machine", "level": "-1", "name": "cold drinks", "vending": "drinks"}}, {"type": "node", "id": 687006544, "lat": 51.2266734, "lon": 6.7769822, "tags": {"amenity": "vending_machine", "level": "-1", "operator": "Rheinbahn", "vending": "public_transport_tickets"}}, {"type": "node", "id": 696714867, "lat": 51.2252076, "lon": 6.7820507, "tags": {"addr:city": "D\u00fcsseldorf", "addr:country": "DE", "addr:housenumber": "11", "addr:postcode": "40212", "addr:street": "Schadowstra\u00dfe", "amenity": "restaurant", "cuisine": "italian", "level": "0", "name": "Bonalumi", "toilets:wheelchair": "yes", "wheelchair": "yes"}}, {"type": "node", "id": 702299245, "lat": 51.2176684, "lon": 6.7804576, "tags": {"addr:city": "D\u00fcsseldorf", "addr:country": "DE", "addr:housenumber": "3", "addr:postcode": "40215", "addr:street": "Jahnstra\u00dfe", "amenity": "theatre", "name": "FFT Kammerspiele", "website": "http://www.forum-freies-theater.de/", "wheelchair": "limited", "wikidata": "Q647360", "wikipedia": "de:Forum Freies Theater"}}, {"type": "node", "id": 702299246, "lat": 51.2248785, "lon": 6.7759949, "tags": {"addr:city": "D\u00fcsseldorf", "addr:country": "DE", "addr:housenumber": "6", "addr:postcode": "40213", "addr:street": "Kasernenstra\u00dfe", "alt_name": "Forum Freies Theater \u2013 Junges Theater in der Altstadt", "amenity": "theatre", "email": "info@fft-duesseldorf.de", "name": "FFT Juta", "phone": "+49 211 8767870", "website": "http://www.forum-freies-theater.de/", "wheelchair": "yes"}}, {"type": "node", "id": 719743589, "lat": 51.2282614, "lon": 6.7732956, "tags": {"addr:city": "D\u00fcsseldorf", "addr:country": "DE", "addr:housenumber": "7", "addr:postcode": "40213", "addr:street": "Liefergasse", "amenity": "nightclub", "name": "La Guantanamera", "website": "http://www.la-guantanamera.de/Club_Start.html", "wheelchair": "no"}}, {"type": "node", "id": 719743593, "lat": 51.2281753, "lon": 6.7733367, "tags": {"addr:city": "D\u00fcsseldorf", "addr:country": "DE", "addr:housenumber": "7", "addr:postcode": "40213", "addr:street": "Liefergasse", "amenity": "bar", "name": "La Guantanamera", "website": "http://www.la-guantanamera.de/BAR_Start.html", "wheelchair": "no"}}, {"type": "node", "id": 719743607, "lat": 51.2268205, "lon": 6.7762651, "tags": {"addr:city": "D\u00fcsseldorf", "addr:country": "DE", "addr:housenumber": "14", "addr:postcode": "40213", "addr:street": "Neustra\u00dfe", "amenity": "nightclub", "fixme": "position", "name": "ArribA", "opening_hours": "We-Su 22:00-05:00", "website": "http://www.la-guantanamera.de/Arriba_Start.html", "wheelchair": "limited"}}, {"type": "node", "id": 722876452, "lat": 51.2284997, "lon": 6.7821752, "tags": {"access": "private", "amenity": "parking", "parking": "underground"}}, {"type": "node", "id": 722876480, "lat": 51.2281261, "lon": 6.7826367}, {"type": "node", "id": 729819211, "lat": 51.2284591, "lon": 6.7826291}, {"type": "node", "id": 736912558, "lat": 51.2270168, "lon": 6.787971, "tags": {"addr:city": "D\u00fcsseldorf", "addr:country": "DE", "addr:housenumber": "9", "addr:postcode": "40211", "addr:street": "Tonhallenstra\u00dfe", "amenity": "pharmacy", "healthcare": "pharmacy", "name": "Tonhallen Apotheke"}}, {"type": "node", "id": 777812983, "lat": 51.2261361, "lon": 6.7744341, "tags": {"addr:city": "D\u00fcsseldorf", "addr:country": "DE", "addr:housenumber": "41", "addr:postcode": "40213", "addr:street": "Bolkerstra\u00dfe", "amenity": "restaurant", "name": "Hans Wurst GmbH"}}, {"type": "node", "id": 788677717, "lat": 51.2253841, "lon": 6.7811285, "tags": {"addr:city": "D\u00fcsseldorf", "addr:country": "DE", "addr:housenumber": "11", "addr:postcode": "40212", "addr:street": "Schadowstra\u00dfe", "amenity": "theatre", "email": "info@theateranderkoe.de", "level": "0", "name": "Theater an der K\u00f6", "opening_hours": "Mo-Sa 10:00-20:00; Su 13:00-18:00", "phone": "+49 211 322333", "shop": "ticket", "toilets:wheelchair": "no", "website": "https://www.theateranderkoe.de/", "wheelchair": "yes", "wheelchair:description": "Rollstuhlfahrer zahlen nur 10 Euro Eintritt. Eine Begleitperson muss allerdings den vollen Preis Zahlen."}}, {"type": "node", "id": 788677724, "lat": 51.2252651, "lon": 6.7818319, "tags": {"amenity": "toilets", "description": "Babylounge im OG rechts neben den Toiletten", "female": "yes", "level": "-1;1", "male": "yes", "name": "Center Toiletten", "wheelchair": "yes", "wheelchair:description": "Der Toiletteneingang befindet sich im UG neben Maruyasu"}}, {"type": "node", "id": 797324084, "lat": 51.219882, "lon": 6.7846029, "tags": {"addr:city": "D\u00fcsseldorf", "addr:country": "DE", "addr:housenumber": "62", "addr:postcode": "40210", "addr:street": "Bahnstra\u00dfe", "amenity": "restaurant", "capacity": "40", "cuisine": "sushi", "email": "info@sushibar-fujiyama.de", "name": "Fujiyama", "opening_hours": "Mo-Th 11:00-22:00; Fr-Su 11:00-15:00,17:00-22:00", "phone": "+49 211 36113699", "takeaway": "yes", "website": "http://www.sushibar-fujiyama.de", "wheelchair": "no"}}, {"type": "node", "id": 811430781, "lat": 51.2285213, "lon": 6.7717517, "tags": {"amenity": "fountain", "artist:wikidata": "Q21033867", "artist:wikipedia": "de:Willi Hoselmann", "artist_name": "Willi Hoselmann", "donator": "D\u00fcsseldorfer Jonges", "image": "https://commons.wikimedia.org/wiki/File:D%C3%BCsseldorf_%28DerHexer%29_2010-08-13_067.jpg", "inscription": "Zur Erinnerung an die 650 Jahrfeier der Stadt D\u00fcsseldorf - Errichtet vom Heimatverein D\u00fcsseldorfer Jonges e.V. - 16. August 1938", "material": "Blaustein", "name": "Fischerjungen-Brunnen", "tourism": "artwork", "wikidata": "Q1420102", "wikipedia": "de:Fischerjungen-Brunnen", "year_of_construction": "1938"}}, {"type": "node", "id": 814196478, "lat": 51.2256019, "lon": 6.7715038, "tags": {"amenity": "fountain", "artist:wikidata": "Q1483195", "artist:wikipedia": "de:Willy Meller", "artist_name": "Willy Meller", "artwork:title": "G\u00e4nsebrunnen", "artwork_type": "sculpture", "material": "Granit, Bronze", "name": "G\u00e4nsebrunnen", "tourism": "artwork", "wikidata": "Q1558778", "year_of_construction": "1956"}}, {"type": "node", "id": 816684481, "lat": 51.2156728, "lon": 6.7676319, "tags": {"artwork_type": "plate", "historic": "memorial", "inscription": "Der Tod ist ein Meister aus Deutschland (Paul Celan)", "material": "bronze", "material:de": "Bronze", "name": "Zur Mahnung", "tourism": "artwork"}}, {"type": "node", "id": 829873370, "lat": 51.2321414, "lon": 6.7736651}, {"type": "node", "id": 829873378, "lat": 51.2321609, "lon": 6.7736593}, {"type": "node", "id": 829873380, "lat": 51.2321927, "lon": 6.7736052}, {"type": "node", "id": 829873381, "lat": 51.2320918, "lon": 6.7735453}, {"type": "node", "id": 829873382, "lat": 51.2321952, "lon": 6.7735797}, {"type": "node", "id": 829873393, "lat": 51.2321414, "lon": 6.7734931}, {"type": "node", "id": 829873396, "lat": 51.2321853, "lon": 6.7736287}, {"type": "node", "id": 829873398, "lat": 51.2321793, "lon": 6.7736402}, {"type": "node", "id": 829873400, "lat": 51.2321915, "lon": 6.7735476}, {"type": "node", "id": 829873401, "lat": 51.2321797, "lon": 6.7735186}, {"type": "node", "id": 829873402, "lat": 51.2321035, "lon": 6.7736403}, {"type": "node", "id": 829873403, "lat": 51.2320875, "lon": 6.7735797}, {"type": "node", "id": 829873404, "lat": 51.2321546, "lon": 6.7734957}, {"type": "node", "id": 829873405, "lat": 51.2321195, "lon": 6.7736577}, {"type": "node", "id": 829873415, "lat": 51.2321031, "lon": 6.7735186}, {"type": "node", "id": 829873416, "lat": 51.2321688, "lon": 6.7735051}, {"type": "node", "id": 829873417, "lat": 51.2320946, "lon": 6.7736219}, {"type": "node", "id": 829873418, "lat": 51.2321195, "lon": 6.7735005}, {"type": "node", "id": 846145766, "lat": 51.2246878, "lon": 6.7763783, "tags": {"amenity": "fountain", "artist:wikidata": "Q1690442", "artist:wikipedia": "de:Joachim Schmettau", "artist_name": "Joachim Schmettau", "artwork_type": "sculpture", "donator": "Kundenkreditbank", "material": "bronze", "material:de": "Granit;Bronze", "name": "Musikbrunnen", "tourism": "artwork", "year_of_construction": "1986"}}, {"type": "node", "id": 866734195, "lat": 51.2276077, "lon": 6.7755566, "tags": {"addr:city": "D\u00fcsseldorf", "addr:country": "DE", "addr:housenumber": "4", "addr:postcode": "40213", "addr:street": "Grabbeplatz", "amenity": "bar", "cuisine": "coffee_shop;cake", "email": "kontakt@salondesamateurs.de", "internet_access": "wlan", "name": "Salon des Amateurs", "opening_hours": "Tu-Th 11:30-01:00, Fr-Sa 11:30-05:00, Su 11:30-18:00", "website": "http://www.salondesamateurs.de", "wheelchair": "no"}}, {"type": "node", "id": 875420585, "lat": 51.2339789, "lon": 6.7898778, "tags": {"amenity": "shelter"}}, {"type": "node", "id": 914429373, "lat": 51.2264751, "lon": 6.7737807, "tags": {"addr:city": "D\u00fcsseldorf", "addr:country": "DE", "addr:housenumber": "8", "addr:postcode": "40213", "addr:street": "Mertensgasse", "amenity": "nightclub", "name": "Pretty Vacant Club", "wheelchair": "no"}}, {"type": "node", "id": 914429376, "lat": 51.2263089, "lon": 6.7742287, "tags": {"amenity": "pub", "name": "Mississippi", "wheelchair": "limited"}}, {"type": "node", "id": 918514999, "lat": 51.2222235, "lon": 6.7831689, "tags": {"addr:city": "D\u00fcsseldorf", "addr:country": "DE", "addr:housenumber": "57", "addr:postcode": "40210", "addr:street": "Kreuzstra\u00dfe", "amenity": "car_rental", "brand": "Avis", "brand:wikidata": "Q791136", "brand:wikipedia": "en:Avis Car Rental", "name": "Avis"}}, {"type": "node", "id": 919724659, "lat": 51.2179779, "lon": 6.7806209, "tags": {"addr:city": "D\u00fcsseldorf", "addr:country": "DE", "addr:housenumber": "21", "addr:postcode": "40215", "addr:street": "Adersstra\u00dfe", "amenity": "pub", "cuisine": "burger;breakfast;international;coffee_shop;pasta", "email": "rosies@mail.de", "name": "Rosie's", "opening_hours": "Mo-Su 10:00-01:00", "phone": "+49 211 8766666", "website": "http://www.rosies-d\u00fcsseldorf.de", "wheelchair": "no"}}, {"type": "node", "id": 935548781, "lat": 51.2285025, "lon": 6.7725002, "tags": {"addr:city": "D\u00fcsseldorf", "addr:country": "DE", "addr:housenumber": "9", "addr:postcode": "40213", "addr:street": "Altestadt", "amenity": "kindergarten", "name": "Tageseinrichtung f\u00fcr Kinder - Altestadt", "operator": "Landeshauptstadt D\u00fcsseldorf", "phone": "+49 211 32 39 148"}}, {"type": "node", "id": 935548792, "lat": 51.226735, "lon": 6.7742264, "tags": {"addr:city": "D\u00fcsseldorf", "addr:country": "DE", "addr:housenumber": "36", "addr:postcode": "40213", "addr:street": "Bolkerstra\u00dfe", "amenity": "kindergarten", "name": "Evangelische Tageseinrichtung f\u00fcr Kinder", "operator": "Diakonie in D\u00fcsseldorf", "phone": "+49 211 32 67 12", "wheelchair": "limited"}}, {"type": "node", "id": 935559068, "lat": 51.2207732, "lon": 6.7843168, "tags": {"addr:city": "D\u00fcsseldorf", "addr:country": "DE", "addr:housenumber": "21", "addr:postcode": "40210", "addr:street": "Stresemannstra\u00dfe", "amenity": "kindergarten", "name": "Fr\u00f6belscher Kindergarten", "operator": "Sozialdienst katholischer Frauen und M\u00e4nner e.V.; Ulmenstra\u00dfe 67; 40476 D\u00fcsseldorf", "phone": "+49 211 32 33 38"}}, {"type": "node", "id": 935570415, "lat": 51.2253406, "lon": 6.7901889, "tags": {"addr:city": "D\u00fcsseldorf", "addr:country": "DE", "addr:housenumber": "24", "addr:postcode": "40211", "addr:street": "Hohenzollernstra\u00dfe", "amenity": "kindergarten", "name": "Tageseinrichtung f\u00fcr Kinder \u2013 Hohenzollernstra\u00dfe", "operator": "Diakonie in D\u00fcsseldorf; Platz der Diakonie 1; 40233 D\u00fcsseldorf", "phone": "+49 211 35 97 88"}}, {"type": "node", "id": 937151140, "lat": 51.2342187, "lon": 6.7819675, "tags": {"addr:city": "D\u00fcsseldorf", "addr:country": "DE", "addr:housenumber": "35", "addr:postcode": "40479", "addr:street": "Sternstra\u00dfe", "amenity": "kindergarten", "name": "Tageseinrichtung f\u00fcr Kinder - Sternstra\u00dfe", "operator": "Jugendamt Landeshauptstadt D\u00fcsseldorf, Willi-Becker-Allee 7, 40227 D\u00fcsseldorf", "phone": "+49 211 49 82 152"}}, {"type": "node", "id": 981233006, "lat": 51.2184122, "lon": 6.7762869, "tags": {"addr:city": "D\u00fcsseldorf", "addr:country": "DE", "addr:housenumber": "6", "addr:postcode": "40213", "addr:street": "Graf-Adolf-Platz", "amenity": "restaurant", "contact:website": "http://sattgruen.de", "diet:vegan": "only", "diet:vegetarian": "yes", "name": "Sattgr\u00fcn", "opening_hours": "Mo-Sa 12:00-17:00", "wheelchair": "limited"}}, {"type": "node", "id": 992834039, "lat": 51.2192979, "lon": 6.7728237, "tags": {"amenity": "recycling", "recycling:glass_bottles": "yes", "recycling:paper": "yes", "recycling_type": "container"}}, {"type": "node", "id": 992834060, "lat": 51.2199462, "lon": 6.7739398, "tags": {"amenity": "recycling", "recycling:clothes": "yes", "recycling:glass_bottles": "yes", "recycling:paper": "yes", "recycling_type": "container"}}, {"type": "node", "id": 992835933, "lat": 51.2195966, "lon": 6.7747528, "tags": {"amenity": "parking_entrance", "noexit": "yes", "parking": "underground"}}, {"type": "node", "id": 992865272, "lat": 51.2201668, "lon": 6.7761849, "tags": {"access": "private", "amenity": "parking_entrance", "parking": "underground"}}, {"type": "node", "id": 992928748, "lat": 51.2226264, "lon": 6.7720865}, {"type": "node", "id": 999720985, "lat": 51.2222126, "lon": 6.789152, "tags": {"amenity": "post_box", "brand": "Deutsche Post", "collection_times": "Mo-Fr 15:00,16:30; Sa 10:15", "operator": "Deutsche Post AG", "ref": "Charlottenstra\u00dfe 80, 40210 D\u00fcsseldorf"}}, {"type": "node", "id": 999721032, "lat": 51.2189984, "lon": 6.7879478, "tags": {"amenity": "telephone", "button_operated": "yes", "covered": "no", "description": "M\u00fcnzr\u00fcckgabe bei Restbetr\u00e4gen nur eingeschr\u00e4nkt m\u00f6glich; f\u00fcr's WLAN gelten abweichende Zahlungsmittel: Entweder passender Telekom-Handytarif, ansonsten zahlen per Kreditkarte, Paypal oder Telefonkarte Comfort (alles online); Barzahlung ist nicht m\u00f6glich.", "display": "digital", "internet_access": "wlan", "internet_access:fee": "customers", "internet_access:ssid": "Telekom", "language:de": "main", "language:en": "yes", "language:fr": "yes", "language:others": "no", "lit": "yes", "operator": "Deutsche Telekom", "operator:wikidata": "Q9396", "payment:coins": "yes", "payment:others": "no", "payment:telephone_cards": "yes", "sms": "yes", "video": "no", "wheelchair": "yes"}}, {"type": "node", "id": 999721041, "lat": 51.2220813, "lon": 6.7889819, "tags": {"amenity": "recycling", "location": "overground", "recycling:clothes": "yes", "recycling:glass_bottles": "yes", "recycling:paper": "yes", "recycling_type": "container"}}, {"type": "node", "id": 1054204768, "lat": 51.223346, "lon": 6.7872021, "tags": {"amenity": "kindergarten", "name": "Kita-TuB-Zwerge", "operator": "Kinder, Kinder - Beruf und Familie e.V. in Dormagen, Duesseldorf, Koeln"}}, {"type": "node", "id": 1054204893, "lat": 51.2231826, "lon": 6.787093, "tags": {"addr:city": "D\u00fcsseldorf", "addr:country": "DE", "addr:housenumber": "92", "addr:postcode": "40210", "addr:street": "Oststra\u00dfe", "amenity": "kindergarten", "name": "KiTa Kleiner Elefant", "operator": "Kinder, Kinder - Beruf und Familie e.V. in Dormagen, Duesseldorf, Koeln"}}, {"type": "node", "id": 1088187212, "lat": 51.2228534, "lon": 6.7780582, "tags": {"amenity": "bank", "atm": "Yes", "brand": "Deutsche Bank", "brand:wikidata": "Q66048", "brand:wikipedia": "en:Deutsche Bank", "name": "Deutsche Bank", "wheelchair": "limited"}}, {"type": "node", "id": 1110710582, "lat": 51.2333604, "lon": 6.7888526, "tags": {"amenity": "recycling", "recycling:clothes": "yes", "recycling:glass_bottles": "yes", "recycling:paper": "yes"}}, {"type": "node", "id": 1112086622, "lat": 51.217181, "lon": 6.7799699, "tags": {"addr:city": "D\u00fcsseldorf", "addr:country": "DE", "addr:housenumber": "33", "addr:postcode": "40215", "addr:street": "Luisenstra\u00dfe", "amenity": "parking", "capacity": "187", "fee": "yes", "mdm-id": "2519003-25[PH 25 - Talstra\u00dfe]", "name": "Jecht K & M", "opening_hours": "24/7", "parking": "multi-storey", "wheelchair": "no"}}, {"type": "node", "id": 1144829950, "lat": 51.2240472, "lon": 6.7873364, "tags": {"amenity": "toilets", "fee": "yes", "name": "City Toilette", "website": "http://www.wall.de", "wheelchair": "yes", "wheelchair:description": "geb\u00fchrenpflichtig oder mit Euroschl\u00fcssel kostenlos"}}, {"type": "node", "id": 1163251685, "lat": 51.2227954, "lon": 6.7878298, "tags": {"amenity": "parking_entrance", "parking": "underground"}}, {"type": "node", "id": 1163377908, "lat": 51.22396, "lon": 6.7893186}, {"type": "node", "id": 1164694361, "lat": 51.2231038, "lon": 6.7830325}, {"type": "node", "id": 1164694372, "lat": 51.2233989, "lon": 6.7830855}, {"type": "node", "id": 1164694382, "lat": 51.2231024, "lon": 6.7835991}, {"type": "node", "id": 1170284037, "lat": 51.2279694, "lon": 6.7730871, "tags": {"addr:city": "D\u00fcsseldorf", "addr:country": "DE", "addr:housenumber": "10", "addr:postcode": "40213", "addr:street": "Lambertusstra\u00dfe", "amenity": "restaurant", "name": "Vente", "wheelchair": "no"}}, {"type": "node", "id": 1172753863, "lat": 51.2163905, "lon": 6.7659002}, {"type": "node", "id": 1172753879, "lat": 51.2163286, "lon": 6.766044}, {"type": "node", "id": 1175133246, "lat": 51.2165817, "lon": 6.7865204, "tags": {"addr:city": "D\u00fcsseldorf", "addr:country": "DE", "addr:housenumber": "68", "addr:postcode": "40215", "addr:street": "H\u00fcttenstra\u00dfe", "amenity": "fire_station", "name": "Feuerwehrleitstelle", "operator": "Feuerwehr D\u00fcsseldorf"}}, {"type": "node", "id": 1175265463, "lat": 51.2241291, "lon": 6.7796637, "tags": {"addr:city": "D\u00fcsseldorf", "addr:country": "DE", "addr:housenumber": "36", "addr:postcode": "40212", "addr:street": "K\u00f6nigsallee", "amenity": "nightclub", "name": "Monkey's Club", "wheelchair": "no"}}, {"type": "node", "id": 1177370035, "lat": 51.2165885, "lon": 6.7889948}, {"type": "node", "id": 1177370381, "lat": 51.2166082, "lon": 6.788742}, {"type": "node", "id": 1177370514, "lat": 51.2164887, "lon": 6.7886002}, {"type": "node", "id": 1177370784, "lat": 51.2165859, "lon": 6.7886712, "tags": {"access": "private", "amenity": "parking_entrance"}}, {"type": "node", "id": 1177371088, "lat": 51.2164368, "lon": 6.7886318}, {"type": "node", "id": 1191234002, "lat": 51.2192476, "lon": 6.7720919, "tags": {"addr:city": "D\u00fcsseldorf", "addr:country": "DE", "addr:housenumber": "20", "addr:postcode": "40213", "addr:street": "Haroldstra\u00dfe", "amenity": "kindergarten", "name": "Kindertagesst\u00e4tte P\u00fcnktchen und Anton", "operator": "Privat-gewerblich", "phone": "+49 211 210 72 71"}}, {"type": "node", "id": 1194420464, "lat": 51.2173586, "lon": 6.7813847, "tags": {"amenity": "post_box", "collection_times": "Mo-Fr 17:00; Sa 11:00", "operator": "Deutsche Post AG", "ref": "Luisenstra\u00dfe 42, 40215 D\u00fcsseldorf"}}, {"type": "node", "id": 1195140458, "lat": 51.2175617, "lon": 6.7819556, "tags": {"addr:city": "D\u00fcsseldorf", "addr:country": "DE", "addr:housenumber": "15", "addr:postcode": "40215", "addr:street": "H\u00fcttenstra\u00dfe", "amenity": "fast_food", "cuisine": "burger", "delivery": "yes", "drive_through": "no", "email": "info@papachos.de", "name": "Papachos \u2013 Homemade Burger", "opening_hours": "Mo-Fr 12:00-14:30,17:00-22:00, PH,Sa 15:00-22:00, Su off", "operator": "Grill Fighter GmbH", "outdoor_seating": "yes", "phone": "+49 211 93371800", "smoking": "outside", "takeaway": "yes", "website": "http://www.papachos.net/", "wheelchair": "limited"}}, {"type": "node", "id": 1195141128, "lat": 51.2176886, "lon": 6.781745, "tags": {"addr:city": "D\u00fcsseldorf", "addr:country": "DE", "addr:housenumber": "11", "addr:postcode": "40215", "addr:street": "H\u00fcttenstra\u00dfe", "amenity": "restaurant", "contact:website": "https://www.anfora-restaurant.de/", "cuisine": "turkish", "name": "Anfora", "toilets:wheelchair": "no", "wheelchair": "yes"}}, {"type": "node", "id": 1195706022, "lat": 51.2168505, "lon": 6.784301}, {"type": "node", "id": 1195706047, "lat": 51.2171135, "lon": 6.7843345}, {"type": "node", "id": 1195706075, "lat": 51.2169002, "lon": 6.7852472}, {"type": "node", "id": 1195706149, "lat": 51.2163467, "lon": 6.7852288}, {"type": "node", "id": 1195706159, "lat": 51.2164888, "lon": 6.7848132}, {"type": "node", "id": 1195706212, "lat": 51.2166023, "lon": 6.7846321}, {"type": "node", "id": 1195706267, "lat": 51.2168129, "lon": 6.7842962}, {"type": "node", "id": 1195706315, "lat": 51.2167264, "lon": 6.7844344}, {"type": "node", "id": 1195706337, "lat": 51.2170658, "lon": 6.785253}, {"type": "node", "id": 1195706375, "lat": 51.2171072, "lon": 6.7844564}, {"type": "node", "id": 1195706380, "lat": 51.2167161, "lon": 6.7844506}, {"type": "node", "id": 1195706388, "lat": 51.2167711, "lon": 6.7843627}, {"type": "node", "id": 1195706414, "lat": 51.217007, "lon": 6.7843208}, {"type": "node", "id": 1195706420, "lat": 51.2170148, "lon": 6.7852513}, {"type": "node", "id": 1195706442, "lat": 51.2163493, "lon": 6.7850824}, {"type": "node", "id": 1195706466, "lat": 51.2163501, "lon": 6.785035}, {"type": "node", "id": 1195706545, "lat": 51.2170007, "lon": 6.7843202}, {"type": "node", "id": 1195706570, "lat": 51.2166201, "lon": 6.7846039}, {"type": "node", "id": 1195706608, "lat": 51.2170729, "lon": 6.7851176}, {"type": "node", "id": 1195706879, "lat": 51.2167438, "lon": 6.7844063}, {"type": "node", "id": 1203110611, "lat": 51.2295232, "lon": 6.7765805, "tags": {"amenity": "police", "name": "Polizeiinspektion Mitte"}}, {"type": "node", "id": 1203314211, "lat": 51.2323565, "lon": 6.7888081, "tags": {"amenity": "post_box", "collection_times": "Mo-Fr 17:15; Sa 11:30", "operator": "Deutsche Post", "ref": "Rochusstra\u00dfe 56, 40479 D\u00fcsseldorf"}}, {"type": "node", "id": 1205455530, "lat": 51.2238134, "lon": 6.7730477}, {"type": "node", "id": 1205455531, "lat": 51.223775, "lon": 6.7735049}, {"type": "node", "id": 1205455532, "lat": 51.2237791, "lon": 6.773049}, {"type": "node", "id": 1205455533, "lat": 51.2238113, "lon": 6.7735022}, {"type": "node", "id": 1205574909, "lat": 51.2281459, "lon": 6.7713624}, {"type": "node", "id": 1205574911, "lat": 51.2280562, "lon": 6.7714301}, {"type": "node", "id": 1205639860, "lat": 51.2252588, "lon": 6.7723486, "tags": {"amenity": "recycling", "location": "underground", "recycling:clothes": "yes", "recycling:glass_bottles": "yes", "recycling:paper": "yes", "recycling_type": "container"}}, {"type": "node", "id": 1216667661, "lat": 51.2348212, "lon": 6.7864176}, {"type": "node", "id": 1216667683, "lat": 51.2348179, "lon": 6.7872844}, {"type": "node", "id": 1216667706, "lat": 51.2344512, "lon": 6.7872998}, {"type": "node", "id": 1216667724, "lat": 51.2345981, "lon": 6.7864269}, {"type": "node", "id": 1223476684, "lat": 51.2352631, "lon": 6.7868405}, {"type": "node", "id": 1228189330, "lat": 51.2255826, "lon": 6.7896343}, {"type": "node", "id": 1228189331, "lat": 51.2255205, "lon": 6.7889071}, {"type": "node", "id": 1228189335, "lat": 51.225783, "lon": 6.7888552}, {"type": "node", "id": 1228189337, "lat": 51.2255269, "lon": 6.789616}, {"type": "node", "id": 1228189339, "lat": 51.2257845, "lon": 6.7888476}, {"type": "node", "id": 1232607309, "lat": 51.2340165, "lon": 6.7897905}, {"type": "node", "id": 1232607312, "lat": 51.2340329, "lon": 6.789889},